stop_id,stop_name,stop_lat,stop_lon,stop_code,location_type,parent_station
0100050,3rd St:Santa Clara Av,37.773268,-122.288228,58123,,
0100060,8th St:Portola Av,37.768814,-122.272992,52246,,
0100070,8th St:Portola Av,37.768993,-122.272798,57793,,
0100140,Ralph Appezzato Memorial Pkwy:3rd St,37.779826,-122.287530,58868,,
0100180,Atlantic Av:Constitution Way,37.779879,-122.275281,50101,,
0100250,Atlantic Av:Webster St,37.779599,-122.276121,50545,,
0100270,Aughinbaugh Way:Kofman Pkwy,37.741713,-122.250125,56711,,
0100280,Aughinbaugh Way:Mecartney Rd,37.738745,-122.252140,55876,,
0100290,Aughinbaugh Way:Mecartney Rd,37.738463,-122.251960,55852,,
0100300,Aughinbaugh Way:Robert Davey Jr Dr,37.742485,-122.250108,52110,,
0100310,Aughinbaugh Way:Robert Davey Jr Dr,37.742889,-122.249962,55487,,
0100320,Aughinbaugh Way:The Lagoon,37.740936,-122.251036,56504,,
0100330,Aughinbaugh Way:The Lagoon,37.740519,-122.251191,52420,,
0100340,Blanding Av:Broadway,37.768581,-122.233770,55987,,place_BDBL
0100350,Blanding Av:Broadway,37.768741,-122.233731,56668,,place_BDBL
0100460,Broadway:Santa Clara Av,37.763731,-122.238062,52249,,
0100470,Broadway:Tilden Way,37.767460,-122.235163,51545,,
0100860,Central Av:8th St,37.771430,-122.273254,54233,,
0100870,Central Av:8th St,37.771233,-122.273248,54330,,
0100900,Central Av:Bay St,37.771199,-122.264951,58331,,
0100910,Central Av:Bay St,37.771047,-122.264888,57978,,
0100930,Central Av:Weber St,37.771152,-122.269209,59430,,
0100940,Central Av:Weber St,37.771330,-122.269182,59865,,
0100960,Central Av:Webster St,37.771353,-122.276397,53365,,
0100970,Challenger Dr:Atlantic Av,37.781464,-122.270789,58996,,
0101010,Encinal Av:Alameda High School,37.763760,-122.246857,59123,,
0101020,Encinal Av:Benton St,37.770259,-122.261727,56758,,
0101050,Encinal Av:Chestnut St,37.766815,-122.253786,53040,,
0101060,Encinal Av:Chestnut St,37.766745,-122.254144,52664,,
0101070,Encinal Av:Fountain St,37.756696,-122.234717,56340,,
0101080,Encinal Av:Grand St,37.768792,-122.258387,52994,,
0101090,Encinal Av:Grand St,37.768609,-122.258366,51213,,
0101100,Encinal Av:High St,37.756284,-122.234396,56589,,
0101110,Encinal Av:Mound St,37.757911,-122.236708,56810,,
0101120,Encinal Av:Mound St,37.757739,-122.236182,56733,,
0101130,Encinal Av:Park Av,37.761733,-122.242684,53531,,
0101140,Encinal Av:Park Av W,37.761881,-122.243208,51144,,
0101150,Encinal Av:Paru St,37.769350,-122.260037,54130,,
0101170,Encinal Av:Versailles Av,37.759236,-122.238676,59334,,
0101190,Encinal Av:Walnut St (Alameda High School),37.764085,-122.247943,56787,,
0101240,Fernside Blvd:Harvard Dr,37.765249,-122.229066,53004,,
0101250,Fernside Blvd:Harvard Dr,37.765222,-122.228691,56989,,
0101260,Fernside Blvd:High St,37.763479,-122.226523,55879,,
0101270,Fernside Blvd:High St,37.763684,-122.226485,59772,,
0101280,Fernside Blvd:San Jose Av (Lincoln Middle School),37.752975,-122.231885,51566,,
0101290,Fernside Blvd:Versailles Av,37.767139,-122.232216,58336,,
0101300,Fernside Blvd:Versailles Av,37.766939,-122.232229,54110,,
0101370,Grand St:#433 (Opp. Wood Middle School),37.761634,-122.262987,54784,,
0101380,Grand St:#433 (Wood Middle School),37.761641,-122.262755,55410,,
0101390,Grand St:Shoreline Dr,37.759748,-122.263841,59934,,
0101480,Harbor Bay Pkwy:Ferry Terminal,37.736475,-122.256544,58511,,place_HBFT
0101530,Otis Dr:Heather Walk,37.764000,-122.264968,57895,,
0101550,High St:Calhoun St,37.752869,-122.237795,57798,,
0101560,High St:Encinal Av,37.756448,-122.233855,57780,,
0101570,High St:Encinal Av,37.756372,-122.234126,57727,,
0101580,High St:Fairview Av,37.761270,-122.228526,53114,,
0101590,High St:Fairview Av,37.761541,-122.228403,58662,,
0101620,High St:Otis Dr,37.752049,-122.238907,51021,,
0101630,Otis Dr:High St,37.751927,-122.239189,53770,,
0101640,High St:San Jose Av,37.755006,-122.235422,55235,,
0101650,High St:San Jose Av,37.755240,-122.235377,51065,,
0101660,High St:Santa Clara Av,37.758948,-122.231273,51134,,
0101670,High St:Santa Clara Av,37.758946,-122.231100,57720,,
0101680,High St:Sterling Av,37.757632,-122.232547,53304,,
0101690,High St:Van Buren St,37.757684,-122.232666,51334,,
0101720,Island Dr: Park & Ride,37.744998,-122.237082,58663,,
0101730,Island Dr:Clubhouse Memorial Rd,37.739487,-122.237961,53665,,
0101750,Island Dr:Bayfarm Park & Ride Lot,37.745455,-122.236394,58815,,
0101770,Lincoln Av:5th St,37.775230,-122.282041,50557,,
0101780,Lincoln Av:5th St,37.775461,-122.282032,55178,,
0101790,Lincoln Av:6th St,37.775166,-122.279484,53314,,
0101800,Lincoln Av:6th St,37.775357,-122.279193,52165,,
0101820,Lincoln Av:Webster St,37.775303,-122.277159,57737,,
0101830,Main St:Atlantic Av,37.779022,-122.291369,55363,,
0101920,Maitland Dr:Flower Ln,37.735779,-122.235660,58669,,
0101940,Maitland Dr:Island Dr,37.738697,-122.238062,56706,,
0101960,Marina Village Pkwy:#1080,37.785035,-122.271480,57507,,
0101970,Marina Village Pkwy:#1201,37.785994,-122.273287,58321,,
0101980,Marina Village Pkwy:#1250,37.787158,-122.274718,59987,,
0101990,Marina Village Pkwy:#947,37.784792,-122.271599,50116,,
0102000,Challenger Dr:Marina Village Pkwy,37.782344,-122.271734,55430,,
0102010,Marina Village Pkwy:Challenger Dr,37.782751,-122.271361,57656,,
0102030,Marina Village Pkwy:Mariner Square Dr (North Jctn),37.787925,-122.276046,56715,,
0102040,Marina Village Pkwy:Mariner Square Dr (North Jctn),37.788040,-122.275728,58177,,
0102050,Marina Village Pkwy:Mariner Sq Loop,37.788309,-122.277502,56716,,
0102070,Pacific Av:4th St,37.776281,-122.285951,58277,,
0102080,Mecartney Rd:Auburn Dr,37.736177,-122.241388,58377,,
0102100,Mecartney Rd:Aughinbaugh Way,37.738101,-122.251855,58910,,
0102110,Mecartney Rd:Baywalk Rd,37.737566,-122.249034,53488,,
0102160,Mecartney Rd:Camellia Dr,37.735178,-122.237102,59008,,
0102180,Mecartney Rd:Holly St,37.734979,-122.236912,58807,,
0102190,Mecartney Rd:Ironwood Rd,37.737070,-122.245171,50277,,
0102200,Mecartney Rd:Island Dr,37.735710,-122.239410,50377,,
0102230,Mecartney Rd:Melrose Av,37.733814,-122.234449,59949,,
0102240,Mecartney Rd:Sharon Rd,37.737884,-122.254372,57517,,
0102250,Mecartney Rd:Sharon Rd,37.738027,-122.254562,59040,,
0102260,Mecartney Rd:Verdemar Dr,37.736602,-122.244510,51550,,
0102270,Monarch St:Building #21,37.787871,-122.308162,54082,,
0102290,Monarch St:W Redline Av,37.788887,-122.308076,54086,,
0102370,Otis Dr:#2217,37.759356,-122.251237,58817,,
0102380,Otis Dr:Arlington Isle,37.764165,-122.264870,57790,,
0102390,Otis Dr:Broadway,37.755766,-122.245055,50399,,
0102410,Otis Dr:Broadway,37.755348,-122.244517,50119,,
0102420,Otis Dr:Grand St,37.763009,-122.262297,57527,,
0102430,Otis Dr:Grand St,37.763272,-122.262465,56675,,
0102440,Otis Dr:High St,37.751879,-122.238783,55393,,
0102450,Otis Dr:Larchmont Isle,37.764905,-122.267421,56844,,
0102460,Otis Dr:Larchmont Isle,37.764962,-122.267004,53113,,
0102480,Otis Dr:Mound St,37.753353,-122.241165,56725,,
0102490,Otis Dr:Park St,37.757162,-122.247974,50450,,place_PSOT
0102500,Otis Dr:Park St,37.757812,-122.248661,53994,,place_PSOT
0102530,Otis Dr:S Shore Ctr,37.759510,-122.251834,58344,,
0102560,Otis Dr:Westline Dr,37.766071,-122.271104,51531,,
0102570,Otis Dr:Westline Dr,37.766264,-122.271405,55606,,
0102580,Otis Dr:Willow St,37.760666,-122.253614,58522,,
0102590,Otis Dr:Willow St,37.760515,-122.253643,51535,,
0102630,Pacific Av:4th St,37.776512,-122.285647,59770,,
0102640,Pacific Av:Main St,37.776645,-122.290921,54682,,
0102680,Park St:Blanding Av,37.770455,-122.237469,56488,,
0102690,Park St:Buena Vista Av,37.767980,-122.239522,55844,,
0102730,Park St:Clement Av,37.769631,-122.238167,56433,,
0102770,Park St:Encinal Av,37.762363,-122.244273,57500,,
0102810,Park St:Otis Dr,37.757310,-122.248732,57537,,place_PSOT
0102820,Park St:Otis Dr,37.757783,-122.248133,57797,,place_PSOT
0102830,Park St:San Jose Av,37.760801,-122.245837,58895,,
0102840,Park St:San Jose Av,37.760726,-122.245636,57767,,
0102890,Robert Davey Jr Dr:Channing Way,37.743177,-122.248248,51170,,
0102900,Robert Davey Jr Dr:Channing Way,37.742817,-122.247471,58843,,
0102910,Robert Davey Jr Dr:Oyster Pond Rd,37.742661,-122.245268,58827,,
0102920,Robert Davey Jr Dr:Oyster Pond Rd,37.742432,-122.245107,55024,,
0102930,Robert Davey Jr Dr:Packet Landing Rd,37.743631,-122.239174,58837,,
0102940,Robert Davey Jr Dr:Packet Landing Rd,37.744281,-122.239594,55278,,
0102950,Robert Davey Jr Dr:Pudding Stone Rd,37.743973,-122.243537,52270,,
0102960,Robert Davey Jr Dr:Pudding Stone Rd,37.744242,-122.242717,55708,,
0103140,Santa Clara Av:8th St,37.773159,-122.272867,55675,,
0103150,Santa Clara Av:8th St,37.773303,-122.272594,55995,,
0103160,Santa Clara Av:9th St,37.773245,-122.270845,56558,,
0103170,Santa Clara Av:9th St,37.773110,-122.270665,55378,,
0103180,Santa Clara Av:Bay St,37.772879,-122.264772,55944,,
0103190,Santa Clara Av:Bay St,37.773076,-122.264920,55537,,
0103200,Santa Clara Av:Broadway,37.763680,-122.238582,57733,,
0103220,Santa Clara Av:Caroline St,37.773022,-122.268217,51591,,
0103230,Santa Clara Av:Chestnut St,37.769728,-122.251761,55579,,
0103270,Santa Clara Av:Grand St,37.771552,-122.256027,56661,,
0103280,Santa Clara Av:Grand St,37.771537,-122.256317,52533,,
0103330,Santa Clara Av:Oak St,37.766038,-122.243795,53370,,
0103340,Santa Clara Av:Park St,37.765284,-122.241692,55511,,
0103350,Santa Clara Av:Park St,37.765368,-122.242085,59255,,
0103360,Santa Clara Av:Stanton St,37.772773,-122.259788,57373,,
0103370,Santa Clara Av:Stanton St,37.772913,-122.259887,55994,,
0103380,Santa Clara Av:Walnut St,37.767192,-122.246334,58944,,
0103420,Santa Clara Av:Webster St,37.773272,-122.276436,59992,,
0103430,Santa Clara Av:Willow St,37.768483,-122.248904,51119,,
0103450,Shoreline Dr:#2019,37.757415,-122.258368,57367,,
0103470,Shoreline Dr:Grand St,37.759281,-122.263768,52132,,
0103480,Shoreline Dr:Kitty Hawk Rd,37.758150,-122.260725,54387,,
0103490,Shoreline Dr:Kitty Hawk Rd,37.758312,-122.260740,53313,,
0103500,Willow St:Shoreline Dr,37.757082,-122.256641,50510,,
0103590,Alameda South Shore Center:Kohl's,37.758749,-122.253198,55499,,
0103600,Alameda South Shore Center:Kohl's,37.758682,-122.252767,50300,,
0103690,W Midway Av:Lexington St,37.785917,-122.303459,54674,,
0103720,W Midway Av:Monarch St,37.786332,-122.308170,52146,,
0103730,W Midway Av:Pan Am Way,37.785528,-122.298230,55033,,
0103740,W Midway Av:Saratoga St,37.785755,-122.302363,56121,,
0103760,W Redline Av:Lexington St,37.788777,-122.303642,52149,,
0103790,Webster St:Ralph Appezzato Memorial Pkwy,37.779082,-122.276692,57700,,
0103800,Webster St:Buena Vista Av,37.777035,-122.276770,51551,,
0103830,Webster St:Lincoln Av,37.775491,-122.276645,55549,,
0103860,Webster St:Santa Clara Av,37.773067,-122.276890,57750,,
0103900,Whitehall Pl:Willow St,37.759409,-122.254771,52256,,
0103910,Whitehall Pl:Willow St,37.759534,-122.254834,51145,,
0103950,Willow St:Franciscan Way,37.758264,-122.255749,58178,,
0103960,Willow St:Franciscan Way,37.758376,-122.255875,57597,,
0104010,Willow St:Shoreline Dr,37.757074,-122.256420,58278,,
0104020,Willow St:Whitehall Pl,37.759838,-122.255084,51126,,
0104030,Willow St:Whitehall Pl,37.759241,-122.255169,58378,,
0104110,Encinal Av:Broadway,37.760315,-122.240544,55041,,
0104120,Encinal Av:Broadway,37.760372,-122.240334,50650,,
0104170,Park St:Buena Vista Av,37.767968,-122.239830,56658,,
0104200,Ralph Appezzato Memorial Pkwy:Mosley Av,37.780073,-122.288473,51107,,
0104210,Park St:Santa Clara Av,37.765141,-122.242130,52666,,
0104220,Park St:Santa Clara Av,37.765600,-122.241575,55546,,
0104230,Park St:Encinal Av,37.762216,-122.244617,51444,,
0104240,Park St:Encinal Av,37.762793,-122.243930,54877,,
0104270,Webster St:Lincoln Av,37.774893,-122.276819,58899,,
0104280,Webster St:Central Av,37.771734,-122.276806,55975,,
0104300,Mecartney Rd:Melrose Av,37.734077,-122.234656,55476,,
0104310,Webster St:Santa Clara Av,37.773611,-122.276711,55444,,
0104380,Alameda South Shore Center At Park St,37.756778,-122.249165,55523,,
0104390,Alameda South Shore Center At Park St,37.757068,-122.249537,55519,,
0104400,Encinal Av:Versailles,37.759358,-122.238580,53466,,
0104450,Mecartney Rd:Island Dr,37.735499,-122.239517,55049,,
0104460,Broadway:Blanding Av,37.768590,-122.234222,58677,,place_BDBL
0104470,Maitland Dr:Fitchburg Av,37.730989,-122.231695,58754,,
0104480,Maitland Dr:Fitchburg Av,37.730795,-122.231736,50578,,
0104510,Central Av:Pacific Av,37.775694,-122.291150,53545,,
0104520,Central Av:Pacific Av,37.776361,-122.290950,51578,,
0104530,Central Av:3rd St,37.772764,-122.288710,51615,,
0104550,Lexington St:W. Mall Pl,37.786413,-122.303652,56501,,
0104560,Pacific Av:3rd St,37.776547,-122.287403,51229,,
0104570,Pacific Av:3rd St,37.776330,-122.287726,56512,,
0104590,Pacific Av:Central Av,37.776413,-122.290768,52578,,
0104600,Webster St:Atlantic Av,37.780202,-122.276366,59400,,
0104700,Mecartney Rd:Belmont Place,37.735999,-122.241968,55858,,
0104730,W Midway Av:Orion St,37.785058,-122.293855,50243,,
0104740,W Midway Av:Pan Am Way,37.785622,-122.297892,50251,,
0104760,W Ranger Av:#650,37.784721,-122.299974,50257,,
0104770,Saratoga St:W Midway Av,37.785610,-122.302131,50258,,
0104780,W Midway Av:Orion St,37.785000,-122.294399,50259,,
0104790,Webster St:Stargell Av,37.782860,-122.276770,50541,,
0104800,Webster St:Stargell Av,37.783169,-122.276388,50542,,
0104810,Mariner Sq Loop:Stargell Av,37.785082,-122.278177,50612,,
0200010,Bayside Common Condominiums,37.896314,-122.308150,55064,,
0200030,Buchanan St:Jackson St,37.887757,-122.300790,53578,,
0200040,Buchanan St:Jackson St,37.887509,-122.301187,55979,,
0200050,Buchanan St:Pierce St,37.887582,-122.305140,56523,,
0200060,Buchanan St:Polk St,37.887683,-122.302584,55142,,
0200080,Buchanan St:Usda Trucking,37.887105,-122.306245,50622,,
0200120,Jackson St:8th St,37.883455,-122.299981,55448,,
0200130,Jackson St:8th St,37.883508,-122.300069,54096,,
0200200,Ohlone Dr:#956,37.885534,-122.301303,55990,,
0200220,Pierce St:#545,37.895813,-122.308122,52700,,
0200250,Pierce St:Gateview Apts,37.893869,-122.307298,55616,,
0200260,Pierce St:Gateview Apts,37.894086,-122.307189,56411,,
0200270,Pierce St:Solano Av,37.889031,-122.305844,54376,,
0200280,Pierce St:Washington Av,37.889515,-122.305893,55718,,
0200350,San Pablo Av:Brighton Av,37.897137,-122.301025,52117,,
0200360,San Pablo Av:Brighton Av,37.896510,-122.301090,56422,,
0200370,San Pablo Av:Buchanan St,37.888070,-122.298112,56606,,
0200380,San Pablo Av:Buchanan St,37.888096,-122.298404,57957,,
0200390,San Pablo Av:Castro St,37.894286,-122.300376,55728,,
0200400,San Pablo Av:Marin Av,37.886462,-122.297870,51166,,
0200410,San Pablo Av:Marin Av,37.886486,-122.297604,55867,,
0200420,San Pablo Av:Monroe St,37.884827,-122.297068,55978,,
0200430,San Pablo Av:Monroe St,37.884410,-122.297213,54344,,
0200450,San Pablo Av:Solano Av,37.890065,-122.298747,50888,,
0200590,Solano Av:Cornell Av,37.890390,-122.295871,55766,,
0200600,Solano Av:Cornell Av,37.890527,-122.296019,55730,,
0200610,Solano Av:Curtis St,37.890871,-122.287156,51212,,
0200620,Solano Av:Kains Av,37.890379,-122.298320,55395,,
0200630,Solano Av:Masonic Av,37.890503,-122.293296,55133,,
0200640,Solano Av:Masonic Av,37.890693,-122.293479,58977,,
0200650,Solano Av:Peralta Av,37.890955,-122.285239,56615,,
0200670,Solano Av:Ramona Av,37.890748,-122.291328,51915,,
0200680,Solano Av:Ramona Av,37.890640,-122.290928,56568,,
0200700,Solano Av:Santa Fe Av,37.890750,-122.288926,52245,,
0200710,Solano Av:Santa Fe Av,37.890863,-122.289194,55905,,
0200720,Solano Av:Ventura Av,37.891078,-122.283153,57975,,
0200730,San Pablo Av:Solano Av,37.889965,-122.299013,56688,,
0200740,San Pablo Rd:Portland Av,37.893335,-122.299808,52217,,
0200750,Pierce St:Solano Av,37.888728,-122.305791,55958,,
0200760,Ohlone Av:West End Way,37.884731,-122.305012,54440,,
0200770,Red Oak Av:Kinkead Way,37.882933,-122.302906,55115,,
0200780,Jackson St:Ohlone St,37.885444,-122.300150,50529,,
0300030,6th St:Allston Way,37.865080,-122.296821,52231,,
0300040,6th St:Allston Way,37.865489,-122.296808,57589,,
0300070,6th St:Cedar St,37.873867,-122.299697,52236,,
0300080,6th St:Cedar St,37.874332,-122.299663,53227,,
0300090,6th St:Channing Way,37.861640,-122.295555,59338,,
0300100,6th St:Channing Way,37.861816,-122.295785,55790,,
0300110,6th St:Delaware St,37.870827,-122.298505,59757,,
0300120,6th St:Delaware St,37.870833,-122.298685,55149,,
0300130,6th St:Gilman St,37.878893,-122.301284,59668,,
0300140,6th St:Hearst Av,37.869459,-122.298283,56499,,
0300150,6th St:Page St,37.876514,-122.300520,52310,,
0300160,6th St:Page St,37.876349,-122.300284,56465,,
0300170,6th St:University Av,37.868307,-122.297688,55065,,
0300180,6th St:University Av,37.867684,-122.297696,56310,,
0300190,6th St:Virginia St,37.872236,-122.298950,59774,,
0300200,6th St:Virginia St,37.872078,-122.299123,59908,,
0300210,7th St:Anthony St,37.852285,-122.291609,55909,,
0300220,7th St:Anthony St,37.852180,-122.291379,55915,,
0300260,7th St:Grayson St,37.855413,-122.292610,55970,,
0300270,7th St:Grayson St,37.855569,-122.292570,50633,,
0300290,7th St:Heinz Av,37.853334,-122.291766,58667,,
0300300,7th St:Parker St,37.858603,-122.293484,55738,,
0300310,7th St:Parker St,37.858548,-122.293665,55807,,
0300315,Addison St:Oxford St,37.871293,-122.266549,57566,,
0300320,Adeline St:Alcatraz Av,37.849115,-122.271091,52252,,
0300330,Adeline St:Alcatraz Av,37.848450,-122.271748,52525,,
0300340,Adeline St:Ashby Av,37.855424,-122.268619,53327,,
0300350,Adeline St:Ashby BART Station,37.852597,-122.270050,59978,,
0300360,Adeline St:Ashby BART Station,37.852913,-122.269542,59918,,
0300370,Adeline St:Fairview St,37.851003,-122.270477,59928,,
0300380,Adeline St:Fairview St,37.850792,-122.270848,54254,,
0300390,Adeline St:Oregon St,37.857758,-122.267728,57220,,
0300400,Adeline St:Oregon St,37.857080,-122.268495,57330,,
0300410,Adeline St:Russell St,37.855491,-122.269009,56736,,
0300420,Adeline St:Ward St,37.859036,-122.267791,56910,,
0300430,Adeline St:Ward St,37.858940,-122.267328,59578,,
0300440,Alcatraz Av:Adeline St,37.848747,-122.271890,54894,,
0300450,Alcatraz Av:Adeline St,37.848626,-122.271832,56751,,
0300460,Alcatraz Av:California St,37.848146,-122.275523,50701,,
0300470,Alcatraz Av:California St,37.848241,-122.275665,50756,,
0300480,Alcatraz Av:Dover St,37.848972,-122.269193,51701,,
0300490,Alcatraz Av:Dover St,37.849124,-122.269135,51712,,
0300520,Alcatraz Av:King St,37.848533,-122.273522,52723,,
0300530,Alcatraz Av:King St,37.848397,-122.273719,59321,,
0300540,Alcatraz Av:Sacramento St,37.847913,-122.277352,55164,,
0300550,Alcatraz Av:Sacramento St,37.848001,-122.277582,52756,,
0300560,Arlington Av:Boynton Av,37.902060,-122.276604,57990,,
0300570,Arlington Av:Boynton Path,37.901973,-122.276365,54578,,
0300580,Arlington Av:Indian Rock Path,37.892003,-122.273940,55107,,
0300590,Arlington Av:Indian Rock Path,37.891989,-122.274206,56752,,
0300600,Arlington Av:Mendocino Path,37.893107,-122.274635,53723,,
0300610,Arlington Av:Mendocino Av,37.893232,-122.274834,56753,,
0300620,Arlington Av:San Antonio Av,37.899122,-122.277421,57585,,
0300630,Arlington Av:San Fernando Av,37.898824,-122.276559,58768,,
0300640,Arlington Av:San Luis Rd,37.900990,-122.276898,57432,,
0300650,Arlington Av:San Luis Rd,37.900947,-122.277188,59970,,
0300660,Arlington Av:Southampton Av,37.894409,-122.274719,59938,,
0300670,Arlington Av:Thousand Oaks Blvd,37.897379,-122.276286,51880,,
0300680,Arlington Av:Thousand Oaks Blvd,37.897156,-122.275692,56759,,
0300690,Arlington Av:Yosemite Rd,37.894957,-122.275264,52880,,
0300710,Ashby Av:7th St,37.851195,-122.290464,55817,,
0300720,Ashby Av:Acton St,37.853162,-122.280972,50667,,
0300730,Ashby Av:Acton St,37.853218,-122.281718,54954,,
0300740,Ashby Av:Adeline St (Ashby BART Station),37.855121,-122.268470,56858,,
0300750,Ashby Av:Adeline St (Ashby BART Station),37.854812,-122.268676,52239,,
0300760,Ashby Av:California St,37.853585,-122.277210,50177,,
0300770,Ashby Av:California St,37.853531,-122.276672,53880,,
0300780,Ashby Av:Claremont Av,37.858092,-122.245764,50677,,
0300790,Ashby Av:Claremont Av,37.857977,-122.245674,52331,,
0300800,Ashby Av:Colby St,37.856395,-122.257616,56795,,
0300810,Ashby Av:College Av,37.857013,-122.252661,58568,,
0300830,Ashby Av:Deakin St,37.855868,-122.262620,52336,,
0300840,Ashby Av:Deakin St,37.855790,-122.262173,57658,,
0300850,Ashby Av:Domingo Av,37.858143,-122.244115,58820,,
0300860,Ashby Av:Ellis St,37.854060,-122.273505,50699,,
0300870,Ashby Av:Hillegass Av,37.856817,-122.255358,59968,,
0300880,Ashby Av:Hillegass Av,37.856702,-122.255244,59875,,
0300890,Ashby Av:King St,37.853892,-122.273900,51050,,
0300900,Ashby Av:Mabel St,37.852739,-122.283454,50540,,
0300910,Ashby Av:Mabel St,37.852758,-122.283986,54559,,
0300920,Ashby Av:Martin Luther King Jr Way(Ashby BART Sa.),37.854419,-122.270920,55765,,
0300930,Ashby Av:Martin Luther King Jr Way(Ashby BART Sa.),37.854256,-122.270609,51171,,
0300940,Ashby Av:Piedmont Av,37.857621,-122.250896,53756,,
0300950,Ashby Av:Piedmont Av,37.857766,-122.250981,59879,,
0300960,Ashby Av:Pine Av,37.857906,-122.248704,56870,,
0300970,Ashby Av:Pine Av,37.857840,-122.248210,57056,,
0300980,Ashby Av:Regent St,37.856586,-122.257120,51951,,
0300990,Ashby Av:Sacramento St,37.853207,-122.279230,52662,,
0301000,Ashby Av:Sacramento St,37.853377,-122.278810,55919,,
0301010,Ashby Av:San Pablo Av,37.852170,-122.286247,52300,,
0301020,Ashby Av:San Pablo Av,37.852150,-122.287154,52599,,
0301030,Ashby Av:Shattuck Av,37.855265,-122.266193,52339,,
0301040,Ashby Av:Shattuck Av,37.855346,-122.266833,55016,,
0301050,Ashby Av:Telegraph Av,37.856207,-122.260145,59300,,
0301060,Ashby Av:Telegraph Av,37.856160,-122.259359,55217,,
0301070,Ashby Av:Wheeler St,37.855588,-122.264836,56796,,
0301080,Ashby Av:Wheeler St,37.855516,-122.264287,58234,,
0301090,Avenida Dr:Campus Dr,37.882765,-122.252289,55827,,
0301100,Avenida Dr:Queens Rd,37.883547,-122.251761,51138,,
0301120,Bancroft Way:College Av,37.869294,-122.255129,59555,,
0301130,Bancroft Way:Dana St,37.868458,-122.261913,55593,,
0301150,Bancroft Way:Piedmont Av,37.869607,-122.252647,54050,,
0301200,Belrose Av:Garber St,37.860993,-122.245777,55837,,
0301220,Campus Dr:Del Mar Av,37.883805,-122.253042,55194,,
0301230,Campus Dr:Glendale Av,37.885766,-122.254512,57651,,
0301240,Campus Dr:Quail Av,37.886689,-122.254852,57652,,
0301250,Campus Dr:Shasta Rd,37.887638,-122.254486,57653,,
0301260,Cedar St:Acton St,37.876310,-122.285181,58958,,
0301270,Cedar St:Acton St,37.876407,-122.285276,57156,,
0301280,Cedar St:Belvedere Av,37.875841,-122.289620,57659,,
0301290,Cedar St:Belvedere Av,37.875716,-122.289812,54589,,
0301320,Cedar St:Cedar Rose Park,37.876221,-122.287254,58432,,
0301330,Cedar St:Cedar Rose Park,37.876090,-122.287329,55204,,
0301340,Cedar St:Cornell Av,37.875480,-122.291647,50234,,
0301350,Cedar St:Cornell Av,37.875636,-122.291355,54501,,
0301460,Cedar St:Sacramento St,37.876695,-122.283023,55241,,
0301480,Cedar St:San Pablo Av,37.875356,-122.293903,55327,,
0301510,Center St:Milvia St,37.869907,-122.270730,55761,,
0301545,Center St:Shattuck Sq (Berkeley BART Station),37.870456,-122.267498,55700,,place_CSSH
0301550,Central Park Dr:Wildcat Canyon Rd,37.896148,-122.255805,59213,,
0301560,Claremont Av:Ashby Av,37.858197,-122.245345,58830,,
0301570,Claremont Av:Ashby Av,37.858390,-122.244937,57115,,
0301580,Claremont Av:Eton Av,37.852445,-122.249976,57118,,
0301590,Claremont Av:Eton Ct,37.852177,-122.249954,57228,,
0301600,Claremont Av:Hazel Rd,37.856285,-122.246638,50432,,
0301610,Claremont Av:The Uplands,37.854324,-122.248245,50911,,
0301620,Claremont Av:Webster St,37.856225,-122.246924,55762,,
0301630,Claremont Av:Woolsey St,37.854115,-122.248626,55763,,
0301640,Claremont Blvd:Garber St,37.860505,-122.245636,51432,,
0301660,College Av:Ashby Av,37.857287,-122.252988,55955,,
0301670,College Av:Ashby Av,37.856824,-122.253115,55991,,
0301690,College Av:Derby St,37.861896,-122.253597,50600,,
0301700,College Av:Derby St,37.862027,-122.253482,59977,,
0301730,College Av:Haste St,37.866775,-122.254045,52223,,
0301740,College Av:Haste St,37.866707,-122.254200,52244,,
0301760,College Av:Parker St,37.864177,-122.253712,57774,,
0301770,College Av:Russell St,37.858815,-122.253145,51199,,
0301780,College Av:Russell St,37.858591,-122.253268,57655,,
0301790,College Av:Webster St,37.855734,-122.252999,52929,,
0301800,College Av:Webster St,37.856032,-122.252886,52922,,
0301810,College Av:Woolsey St,37.853701,-122.252821,56585,,
0301820,College Av:Woolsey St,37.854163,-122.252703,52323,,
0301840,Colusa Av:Tacoma Av,37.893158,-122.280320,53410,,
0301850,Colusa Av:Thousand Oaks Blvd,37.896677,-122.285409,51277,,
0301860,Colusa Av:Thousand Oaks Blvd,37.896480,-122.285110,57338,,
0301870,Colusa Av:Thousand Oaks School,37.892254,-122.280130,51677,,
0301880,Colusa Av:Vincente Av,37.894565,-122.282379,56410,,
0301890,Colusa Av:Vincente Av,37.894703,-122.282810,52377,,
0301900,Colusa Av:Visalia Av,37.898634,-122.285649,57356,,
0301910,Colusa Av:Visalia Av,37.898196,-122.285657,51167,,
0301930,Dana St:Haste St,37.865815,-122.260993,55138,,
0301950,Derby St:Claremont Blvd,37.862529,-122.247097,51510,,
0301960,Derby St:Claremont Blvd,37.862424,-122.247281,58860,,
0301980,Durant Av:College Av,37.868302,-122.254628,52333,,
0301990,Durant Av:Dana St,37.867422,-122.261416,57555,,
0302000,Durant Av:Ellsworth St,37.867143,-122.263696,55776,,
0302020,Durant Av:Shattuck Av,37.866678,-122.267234,56555,,
0302050,Dwight Way:7th St,37.860206,-122.293678,52556,,
0302060,Dwight Way:9th St,37.860614,-122.292147,51667,,
0302070,Dwight Way:9th St,37.860622,-122.291637,55925,,
0302080,Dwight Way:Bonar St,37.861609,-122.286078,56980,,
0302090,Dwight Way:California St,37.862586,-122.278566,57713,,
0302100,Dwight Way:California St,37.862475,-122.278491,50977,,
0302110,Dwight Way:Curtis St,37.861391,-122.287790,59234,,
0302120,Dwight Way:Grant St,37.863141,-122.274268,58007,,
0302130,Dwight Way:Grant St,37.862978,-122.274505,56586,,
0302140,Dwight Way:Mabel St,37.861578,-122.285570,51959,,
0302150,Dwight Way:Martin Luther King Jr Way,37.863371,-122.272396,58575,,
0302160,Dwight Way:Martin Luther King Jr Way,37.863355,-122.271746,50575,,
0302170,Dwight Way:Mathews St,37.861370,-122.287041,55313,,
0302180,Dwight Way:Mc Gee Av,37.862852,-122.276508,55246,,
0302190,Dwight Way:Mc Gee Av,37.862716,-122.276664,58484,,
0302200,Dwight Way:Milvia St,37.863579,-122.270027,51180,,
0302210,Dwight Way:Sacramento St,37.862292,-122.280934,55019,,
0302220,Dwight Way:Sacramento St,37.862185,-122.280669,55070,,
0302230,Dwight Way:San Pablo Av,37.861088,-122.289931,50922,,
0302240,Dwight Way:San Pablo Av,37.861103,-122.289158,56200,,
0302250,Dwight Way:Valley St,37.861877,-122.284008,55249,,
0302260,Dwight Way:Valley St,37.861777,-122.283939,50877,,
0302270,Euclid Av:#1151,37.887576,-122.261317,57501,,
0302280,Euclid Av:#1152,37.887704,-122.261356,55264,,
0302290,Euclid Av:Acacia Av,37.900977,-122.267660,59432,,
0302300,Euclid Av:Acacia Av,37.900605,-122.267490,58117,,
0302310,Euclid Av:Bayview Pl,37.884397,-122.262808,52102,,
0302320,Euclid Av:Bayview Pl,37.884385,-122.262655,52105,,
0302330,Euclid Av:Bret Harte Path,37.889915,-122.262462,57512,,
0302340,Euclid Av:Bret Harte Path,37.889634,-122.262642,52025,,
0302350,Euclid Av:Buena Vista Way,37.880620,-122.261486,53215,,
0302360,Euclid Av:Cedar St,37.879592,-122.261108,56320,,
0302370,Euclid Av:Cedar St,37.879198,-122.261095,54780,,
0302380,Euclid Av:Codornices Park,37.883117,-122.261757,52267,,
0302390,Euclid Av:Cragmont Av,37.890763,-122.263703,54357,,
0302400,Euclid Av:Cragmont Av,37.890737,-122.264053,51877,,
0302410,Euclid Av:Easter Way,37.892464,-122.265045,58227,,
0302420,Euclid Av:Easter Way,37.892677,-122.264909,57523,,
0302430,Euclid Av:Eunice St,37.886371,-122.262355,55294,,
0302440,Euclid Av:Eunice St,37.886293,-122.262504,50705,,
0302450,Euclid Av:Grizzly Peak Blvd,37.901841,-122.267612,50933,,
0302460,Euclid Av:Grizzly Peak Blvd,37.901813,-122.267278,54373,,
0302470,Euclid Av:Hawthorne Ter,37.881733,-122.261447,54375,,
0302480,Euclid Av:Hearst Av,37.875327,-122.260245,52667,,
0302490,Euclid Av:Hilgard Av,37.878556,-122.260832,54670,,
0302500,Euclid Av:Le Conte Av,37.876848,-122.260455,50966,,
0302510,Euclid Av:Marin Av,37.895055,-122.265001,55126,,
0302520,Euclid Av:Marin Av,37.895091,-122.264483,57956,,
0302530,Euclid Av:Poplar St,37.897656,-122.266887,59756,,
0302540,Euclid Av:Poplar St,37.897245,-122.266589,51977,,
0302550,Euclid Av:Regal Rd,37.893963,-122.263767,56587,,
0302560,Euclid Av:Regal Rd,37.893977,-122.263926,58337,,
0302570,Euclid Av:Ridge Rd,37.876208,-122.260450,55304,,
0302580,Euclid Av:Rock Ln,37.896308,-122.265755,54398,,
0302590,Euclid Av:Rock Ln,37.896051,-122.265961,50125,,
0302600,Euclid Av:Rose Walk,37.883115,-122.261606,54865,,
0302610,Euclid Av:Vine Ln,37.881227,-122.261517,50227,,
0302620,Euclid Av:Virginia St,37.877541,-122.260730,55314,,
0302630,Fairlawn Dr:Avenida Dr,37.883519,-122.250139,57478,,
0302650,Fulton St:Kittredge St,37.868828,-122.266165,52280,,
0302670,Gayley Rd:Greek Theater,37.873472,-122.255228,53700,,
0302680,Gilman St:10th St,37.880162,-122.297080,58089,,
0302700,Gilman St:7th St,37.879489,-122.300439,50404,,
0302710,Gilman St:8th St,37.879903,-122.299063,52052,,
0302720,Gilman St:Cornell Av,37.881026,-122.293417,51120,,
0302730,Gilman St:Cornell Av,37.880949,-122.293306,52077,,
0302740,Gilman St:Curtis St,37.881348,-122.289873,51175,,
0302750,Gilman St:Neilson St,37.881240,-122.288968,53367,,
0302760,Gilman St:Ordway St,37.880554,-122.286540,53380,,
0302770,Gilman St:Ordway St,37.880747,-122.286896,52977,,
0302780,Gilman St:San Pablo Av,37.880325,-122.296220,57715,,
0302790,Gilman St:Santa Fe Av,37.881396,-122.291021,52877,,
0302800,Gilman St:Santa Fe Av,37.881490,-122.291109,59545,,
0302820,Grizzly Peak Blvd:#1411,37.884709,-122.248154,52502,,
0302830,Grizzly Peak Blvd:Arcade Av,37.886910,-122.251084,58189,,
0302840,Grizzly Peak Blvd:Arcade Av,37.887124,-122.251475,58710,,
0302850,Grizzly Peak Blvd:Avenida Dr,37.884802,-122.248462,57610,,
0302860,Grizzly Peak Blvd:Creston Rd (North-West Jctn),37.900846,-122.266423,58289,,
0302870,Grizzly Peak Blvd:Creston Rd (South-East Jctn),37.892478,-122.256431,58389,,
0302880,Grizzly Peak Blvd:Creston Rd (South-East Jctn),37.892599,-122.256447,55769,,
0302890,Grizzly Peak Blvd:Creston Rd (North-West Jctn),37.900952,-122.266358,50337,,
0302900,Grizzly Peak Blvd:Forest Ln,37.896729,-122.261209,58689,,
0302910,Grizzly Peak Blvd:Forest Ln,37.896165,-122.260421,57661,,
0302920,Grizzly Peak Blvd:Hill Rd,37.885762,-122.249285,51231,,
0302930,Grizzly Peak Blvd:Hill Rd,37.885852,-122.249161,59854,,
0302940,Grizzly Peak Blvd:Keeler Av,37.899189,-122.265099,54014,,
0302950,Grizzly Peak Blvd:Keeler Av,37.899359,-122.265173,55364,,
0302960,Grizzly Peak Blvd:Latham Ln,37.894138,-122.258264,58847,,
0302970,Grizzly Peak Blvd:Latham Ln,37.894061,-122.258308,54124,,
0302980,Grizzly Peak Blvd:Marin Av,37.896957,-122.261536,55394,,
0302990,Grizzly Peak Blvd:Muir Way,37.891648,-122.255000,57662,,
0303000,Grizzly Peak Blvd:Senior Av,37.883035,-122.248959,53077,,
0303010,Grizzly Peak Blvd:Shasta Rd,37.890339,-122.252263,50226,,
0303020,Grizzly Peak Blvd:Shasta Rd,37.890497,-122.252576,54358,,
0303030,Grizzly Peak Blvd:Stevenson Av,37.891532,-122.255019,54383,,
0303040,Grizzly Peak Blvd:Sunset Ln,37.898046,-122.262039,51220,,
0303050,Grizzly Peak Blvd:Sunset Ln,37.898122,-122.262289,54513,,
0303060,Haste St:Milvia St,37.864586,-122.270287,50229,,
0303070,Haste St:Shattuck Av,37.864914,-122.267930,58005,,
0303100,Hearst Av:Arch St,37.874585,-122.264234,55456,,
0303120,Hearst Av:Euclid Av,37.874930,-122.260552,55006,,
0303140,Hearst Av:Le Roy Av,37.875298,-122.257970,57955,,
0303190,Henry St:Berryman St,37.883594,-122.270868,55180,,
0303200,Henry St:Berryman St,37.883403,-122.271112,58533,,
0303210,Henry St:Eunice St,37.885434,-122.271087,50801,,
0303220,Hopkins St:Albina Av,37.880576,-122.284164,55129,,
0303230,Hopkins St:Beverly Pl,37.884366,-122.276688,55231,,
0303240,Hopkins St:Beverly Pl,37.884131,-122.276855,53877,,
0303250,Hopkins St:California St,37.881563,-122.282045,57887,,
0303260,Hopkins St:Carlotta Av,37.882578,-122.279981,53177,,
0303270,Hopkins St:Colusa Av,37.882928,-122.279578,50997,,
0303280,Hopkins St:Monterey Av,37.881815,-122.281833,53536,,
0303290,Hopkins St:Sacramento St,37.880764,-122.283561,53539,,
0303310,Hopkins St:The Alameda,37.885237,-122.275015,52505,,
0303320,Hopkins St:The Alameda,37.885340,-122.275195,50336,,
0303390,Marin Av:Arlington Cir,37.889980,-122.272841,51077,,
0303400,Marin Av:Lassen St,37.889376,-122.274750,53667,,
0303410,Marin Av:Lassen St,37.889150,-122.274897,52677,,
0303420,Marin Av:The Circle,37.889875,-122.272646,55904,,
0303440,Martin Luther King Jr Way:Allston Way,37.868440,-122.272777,56766,,
0303460,Martin Luther King Jr Way:Ashby Av(Ashby BART Sa.),37.854394,-122.271213,59554,,
0303470,Martin Luther King Jr Way:Ashby Av (Ashby BART),37.854559,-122.271012,55625,,
0303480,Martin Luther King Jr Way:Bancroft Way,37.867176,-122.272462,53457,,
0303490,Martin Luther King Jr Way:Bancroft Way,37.866741,-122.272586,55067,,
0303500,Martin Luther King Jr Way:Berryman St,37.882975,-122.274345,50339,,
0303510,Martin Luther King Jr Way:Berryman St,37.883525,-122.274261,56746,,
0303520,Martin Luther King Jr Way:Cedar St,37.878041,-122.273620,55914,,
0303530,Martin Luther King Jr Way:Cedar St,37.877599,-122.273817,50661,,
0303540,Martin Luther King Jr Way:Channing Way,37.865330,-122.272265,55924,,
0303550,Martin Luther King Jr Way:Channing Way,37.864936,-122.272387,55236,,
0303560,Martin Luther King Jr Way:Derby St,37.859984,-122.271627,58825,,
0303570,Martin Luther King Jr Way:Derby St,37.859865,-122.271785,55045,,
0303580,Martin Luther King Jr Way:Dwight Way,37.863594,-122.272027,51622,,
0303590,Martin Luther King Jr Way:Dwight Way,37.863105,-122.272183,58115,,
0303600,Martin Luther King Jr Way:Hearst Av,37.873426,-122.273302,57663,,
0303610,Martin Luther King Jr Way:Hearst Av,37.873625,-122.273173,57457,,
0303620,Martin Luther King Jr Way:Parker St,37.861294,-122.271978,54787,,
0303630,Martin Luther King Jr Way:Parker St,37.861778,-122.271826,50765,,
0303640,Martin Luther King Jr Way:Prince St,37.852599,-122.271020,55280,,
0303650,Martin Luther King Jr Way:Prince St (Ashby BART),37.852706,-122.270766,52177,,
0303660,Martin Luther King Jr Way:Rose St,37.881231,-122.274160,57587,,
0303670,Martin Luther King Jr Way:Rose St,37.881711,-122.274086,55167,,
0303680,Martin Luther King Jr Way:Russell St,37.856222,-122.271420,56546,,
0303690,Martin Luther King Jr Way:Russell St,37.856370,-122.271206,50544,,
0303700,Martin Luther King Jr Way:Stuart St,37.858161,-122.271417,55239,,
0303710,Martin Luther King Jr Way:Stuart St,37.857740,-122.271562,55602,,
0303720,Martin Luther King Jr Way:University Av,37.871199,-122.273076,56434,,
0303730,Martin Luther King Jr Way:Vine St,37.879809,-122.273829,54890,,
0303740,Martin Luther King Jr Way:Vine St,37.879447,-122.273934,50662,,
0303750,Martin Luther King Jr Way:Virginia St,37.875807,-122.273559,56598,,
0303760,Martin Luther King Jr Way:Virginia St,37.876135,-122.273479,50663,,
0303780,Monterey Av:Colusa Av,37.887176,-122.278663,57669,,
0303790,Monterey Av:Colusa Av,37.887062,-122.278571,51054,,
0303800,Monterey Av:Hopkins St,37.881787,-122.282132,53356,,
0303810,Monterey Av:Hopkins St,37.881975,-122.282008,57867,,
0303820,Monterey Av:Posen Av,37.884791,-122.281249,53277,,
0303830,Monterey Av:Posen Av,37.884904,-122.280942,51589,,
0303840,Monterey Av:The Alameda,37.888236,-122.276076,51801,,
0303860,North Berkeley BART Station,37.874290,-122.283182,55200,,
0303890,Oxford St:Cedar St,37.878635,-122.266797,51765,,
0303900,Oxford St:Cedar St,37.878445,-122.266923,59810,,
0303910,Oxford St:Hearst Av,37.874507,-122.266277,51173,,
0303920,Oxford St:Rose St,37.882097,-122.267194,51179,,
0303930,Oxford St:Rose St,37.882117,-122.267332,55941,,
0303940,Oxford St:University Av,37.872768,-122.265980,50400,,
0303950,Oxford St:Vine St,37.880326,-122.267127,54120,,
0303960,Oxford St:Vine St,37.880365,-122.267005,51197,,
0303970,Oxford St:Virginia St,37.876427,-122.266722,54230,,
0303980,Oxford St:Virginia St,37.876771,-122.266583,54303,,
0303990,Piedmont Av:Bancroft Way,37.869687,-122.252390,52995,,
0304010,Piedmont Av:Channing Way,37.867478,-122.251992,50144,,
0304020,Piedmont Av:Channing Way,37.868058,-122.251816,53677,,
0304030,Piedmont Av:Dwight Way,37.865983,-122.251411,51997,,
0304040,Piedmont Cr:Dwight Way,37.865846,-122.250762,57725,,
0304060,Russell St:Claremont Blvd,37.859029,-122.245086,51633,,
0304070,Sacramento St:Alcatraz Av,37.848060,-122.277941,58599,,
0304080,Sacramento St:Alcatraz Av,37.848458,-122.277738,53556,,
0304090,Sacramento St:Allston Way,37.867648,-122.281543,54305,,
0304100,Sacramento St:Allston Way,37.867102,-122.281801,55380,,
0304110,Sacramento St:Ashby Av,37.853457,-122.279204,52100,,
0304120,Sacramento St:Ashby Av,37.853099,-122.278821,58959,,
0304130,Sacramento St:Bancroft Way,37.866105,-122.281345,52765,,
0304140,Sacramento St:Bancroft Way,37.865925,-122.281681,52515,,
0304150,Sacramento St:Carleton St,37.859679,-122.280524,52535,,
0304160,Sacramento St:Carleton St,37.859839,-122.280242,55820,,
0304170,Sacramento St:Cedar St,37.876909,-122.282535,51856,,
0304180,Sacramento St:Cedar St,37.876438,-122.282755,52154,,
0304190,Sacramento St:Channing Way,37.864105,-122.281485,53977,,
0304200,Sacramento St:Channing Way,37.863932,-122.281159,53765,,
0304210,Sacramento St:Delaware St,37.872798,-122.282399,55942,,
0304220,Sacramento St:Dwight Way,37.862306,-122.281302,55451,,
0304230,Sacramento St:Dwight Way,37.862116,-122.280932,53321,,
0304240,Sacramento St:Fairview St,37.850045,-122.278112,55830,,
0304250,Sacramento St:Fairview St,37.849747,-122.278338,59077,,
0304260,Sacramento St:Hearst Av,37.872014,-122.281987,52589,,
0304270,Sacramento St:Hopkins St,37.880911,-122.283172,52812,,
0304280,Sacramento St:Oregon St,37.855891,-122.279439,51571,,
0304290,Sacramento St:Oregon St,37.855772,-122.279710,58225,,
0304300,Sacramento St:Prince St,37.851253,-122.278696,50570,,
0304310,Sacramento St:Prince St,37.851399,-122.278448,59177,,
0304320,Sacramento St:Rose St,37.878634,-122.283040,52823,,
0304330,Sacramento St:Rose St,37.878423,-122.282704,52856,,
0304350,Sacramento St:University Av,37.870129,-122.281774,55946,,
0304360,Sacramento St:Francisco St (North Berkeley BART),37.873775,-122.282520,53243,,
0304370,Sacramento St:Virginia St,37.875133,-122.282343,53254,,
0304380,Sacramento St:Ward St,37.857893,-122.280157,58335,,
0304390,Sacramento St:Ward St,37.858069,-122.279877,50122,,
0304400,San Pablo Av:Allston Way,37.866724,-122.291239,52007,,
0304410,San Pablo Av:Allston Way,37.866481,-122.291437,59591,,
0304420,San Pablo Av:Ashby Av,37.851805,-122.286712,52228,,
0304430,San Pablo Av:Ashby Av,37.852514,-122.286675,51117,,
0304440,San Pablo Av:Bancroft Way,37.864816,-122.290631,55267,,
0304450,San Pablo Av:Bancroft Way,37.864711,-122.290869,59277,,
0304460,San Pablo Av:Cedar St,37.875108,-122.293951,55165,,
0304470,San Pablo Av:Cedar St,37.875418,-122.294329,59600,,
0304480,San Pablo Av:Channing Way,37.862748,-122.289956,52207,,
0304490,San Pablo Av:Channing Way,37.862930,-122.290299,50344,,
0304500,San Pablo Av:Delaware St,37.871763,-122.293147,59755,,
0304510,San Pablo Av:Delaware St,37.872028,-122.292936,51001,,
0304540,San Pablo Av:Gilman St,37.879897,-122.295773,55501,,
0304550,San Pablo Av:Gilman St,37.880829,-122.295783,55100,,
0304560,San Pablo Av:Grayson St,37.856426,-122.287911,51699,,
0304570,San Pablo Av:Grayson St,37.856294,-122.288160,53003,,
0304580,San Pablo Av:Harrison St,37.882648,-122.296370,52271,,
0304590,San Pablo Av:Harrison St,37.882043,-122.296452,55929,,
0304600,San Pablo Av:Haskell St,37.850474,-122.286002,55603,,
0304610,San Pablo Av:Heinz Av,37.854456,-122.287577,59377,,
0304620,San Pablo Av:Oregon St,37.854847,-122.287408,55367,,
0304630,San Pablo Av:Page St,37.877773,-122.294815,52273,,
0304640,San Pablo Av:Page St,37.877324,-122.294932,53005,,
0304650,San Pablo Av:Parker St,37.859316,-122.288856,55701,,
0304660,San Pablo Av:Parker St,37.859454,-122.289170,56077,,
0304670,University Av:San Pablo Av,37.869064,-122.291725,55996,,
0304730,Seawall Dr:University Av,37.862813,-122.317279,58455,,
0304740,Senior Av:Fairlawn Dr,37.882945,-122.250300,53589,,
0304750,Shasta Rd:Grizzly Peak Blvd,37.889904,-122.252345,59895,,
0304760,Shasta Rd:Miller Av,37.889640,-122.253155,50669,,
0304770,Shasta Rd:Queens Rd,37.888201,-122.253495,59765,,
0304790,Shattuck Av:Allston Way,37.869480,-122.268127,55555,,place_CSSH
0304800,Shattuck Av:Ashby Av,37.855415,-122.266620,59954,,
0304810,Shattuck Av:Ashby Av,37.855106,-122.266408,51101,,
0304820,Shattuck Av:Cedar St,37.878536,-122.269231,53339,,
0304830,Shattuck Av:Cedar St,37.878344,-122.268970,51544,,
0304840,Shattuck Sq:Center St (Berkeley BART Station),37.870194,-122.267730,55559,,place_CSSH
0304850,Shattuck Av:Delaware St,37.875261,-122.268630,54588,,
0304860,Shattuck Av:Delaware St,37.874571,-122.268853,57200,,
0304870,Shattuck Av:Derby St,37.860671,-122.267168,51377,,
0304880,Shattuck Av:Derby St,37.860275,-122.266917,59985,,
0304890,Shattuck Av:Durant Av,37.866468,-122.267812,55226,,
0304900,Shattuck Av:Durant Av,37.866604,-122.267517,52155,,
0304910,Shattuck Av:Dwight Way,37.863909,-122.267216,55452,,
0304920,Shattuck Av:Dwight Way,37.863762,-122.267499,54454,,
0304950,Shattuck Av:Haste St,37.865110,-122.267368,51300,,
0304960,Shattuck Av:Kittredge St,37.868192,-122.267990,55999,,
0304970,Shattuck Av:Kittredge St,37.868450,-122.267722,55585,,
0304980,Shattuck Av:Parker St,37.862092,-122.266998,50151,,
0304990,Shattuck Av:Parker St,37.861927,-122.267279,55935,,
0305000,Shattuck Av:Russell St,37.856958,-122.266647,59799,,
0305010,Shattuck Av:Russell St,37.856820,-122.266807,52955,,
0305020,Shattuck Av:Stuart St,37.858443,-122.266817,50255,,
0305030,Shattuck Av:Stuart St,37.858663,-122.267013,56177,,
0305040,Shattuck Av:University Av,37.872369,-122.268542,58889,,
0305050,Shattuck Av:University Av,37.872541,-122.268319,57776,,
0305060,Shattuck Av:Vine St,37.880320,-122.269455,55507,,
0305070,Shattuck Av:Vine St,37.880138,-122.269171,55652,,
0305080,Shattuck Av:Virginia St,37.876520,-122.268753,57225,,
0305090,Shattuck Av:Virginia St,37.876351,-122.269002,56654,,
0305100,Shattuck Av:Woolsey St,37.852301,-122.266027,55453,,
0305110,Shattuck Av:Woolsey St,37.852467,-122.266224,52592,,
0305120,Shattuck Pl:Rose St,37.881870,-122.270116,59899,,
0305130,Shattuck Pl:Rose St,37.881703,-122.270355,55454,,
0305140,Solano Av:Colusa Av,37.891439,-122.279695,55265,,
0305150,Solano Av:Colusa Av,37.891297,-122.278761,57799,,
0305160,Solano Av:Ensenada Av,37.891330,-122.281795,51922,,
0305170,Solano Av:Ensenada Av,37.891172,-122.281540,50750,,
0305180,Solano Av:Peralta Av,37.891090,-122.285958,51233,,
0305190,Solano Av:Tacoma Av,37.891189,-122.284064,52279,,
0305200,Solano Av:The Alameda,37.891101,-122.276223,54300,,
0305210,Solano Av:The Alameda,37.891555,-122.277507,51251,,
0305220,Spruce St:#533,37.901310,-122.269510,53823,,
0305230,Spruce St:Acacia Walk,37.899376,-122.270826,53856,,
0305240,Spruce St:Eunice St,37.886299,-122.266555,54315,,
0305250,Spruce St:Eunice St,37.885881,-122.266644,52297,,
0305260,Spruce St:Glen Av,37.884088,-122.266295,54065,,
0305270,Spruce St:Glen Av,37.883900,-122.266390,57010,,
0305280,Spruce St:Grizzly Peak Blvd,37.904313,-122.269760,56277,,
0305290,Spruce St:Halkin Ln,37.897971,-122.269860,54165,,
0305300,Spruce St:Los Angeles Av,37.888355,-122.266765,54265,,
0305310,Spruce St:Los Angeles Av,37.888452,-122.266851,55321,,
0305320,Spruce St:Marin Av,37.893368,-122.267895,54351,,
0305330,Spruce St:Marin Av,37.893017,-122.267595,50105,,
0305340,Spruce St:Montrose Rd,37.895267,-122.268979,54965,,
0305350,Spruce St:Rose St,37.882797,-122.266128,53458,,
0305360,Spruce St:Rose St,37.882624,-122.266223,54352,,
0305370,Spruce St:San Benito Rd,37.890902,-122.267297,55712,,
0305380,Spruce St:San Benito Rd,37.890892,-122.267161,57467,,
0305390,Spruce St:Santa Barbara Rd,37.892184,-122.266921,54359,,
0305400,Spruce St:Santa Barbara Rd,37.891978,-122.267141,55860,,
0305410,Spruce St:Vassar Av,37.902399,-122.270570,54363,,
0305420,Sutter St:Hopkins St,37.888418,-122.272268,57740,,
0305430,Sutter St:Hopkins St,37.888576,-122.272503,56300,,
0305450,Sutter St:Yolo Av,37.886245,-122.271894,59592,,
0305470,Telegraph Av:Ashby Av,37.856405,-122.259787,57088,,
0305480,Telegraph Av:Derby St,37.861157,-122.259126,59593,,
0305490,Telegraph Av:Derby St,37.861610,-122.258818,51015,,
0305510,Telegraph Av:Dwight Way,37.864507,-122.258621,51555,,
0305520,Telegraph Av:Dwight Way,37.864990,-122.258365,57711,,
0305530,Telegraph Av:Haste St,37.866293,-122.258610,51244,,
0305540,Telegraph Av:Parker St,37.862917,-122.258882,58835,,
0305550,Telegraph Av:Parker St,37.863067,-122.258605,52250,,
0305560,Telegraph Av:Prince St,37.853622,-122.259940,58220,,
0305570,Telegraph Av:Prince St,37.853650,-122.260175,55723,,
0305580,Telegraph Av:Russell St,37.857789,-122.259589,58330,,
0305590,Telegraph Av:Russell St,37.857942,-122.259338,52424,,
0305600,Telegraph Av:Stuart St,37.859921,-122.259027,51005,,
0305610,Telegraph Av:Stuart St,37.859713,-122.259332,51215,,
0305620,Telegraph Av:Webster St,37.855315,-122.259934,55529,,
0305630,Telegraph Av:Webster St,37.855111,-122.259717,51114,,
0305640,The Alameda:Hopkins St,37.885497,-122.275136,55619,,
0305650,The Alameda:Hopkins St,37.885764,-122.275142,56044,,
0305660,The Alameda:Marin Av,37.888681,-122.276371,52342,,
0305670,The Alameda:Monterey Av,37.887730,-122.276409,55964,,
0305680,The Alameda:Solano Av,37.891164,-122.277111,57735,,
0305690,Tunnel Rd:Bridge Rd,37.855268,-122.238238,53451,,
0305700,Tunnel Rd:Domingo Av (Ashby Av),37.857911,-122.243462,51252,,
0305710,Tunnel Rd:Roble Rd,37.854225,-122.236689,57807,,
0305720,Tunnel Rd:The Uplands,37.855281,-122.238985,53452,,
0305730,Tunnel Rd:Vicente Rd,37.853842,-122.235995,57817,,
0305750,Piedmont Av:Uc Faculty Club,37.871005,-122.252833,55967,,
0305760,University Av:3rd St,37.867275,-122.300677,58883,,
0305770,University Av:4th St,37.867727,-122.299730,52355,,
0305780,University Av:4th St,37.867465,-122.299557,54477,,
0305790,University Av:6th St,37.867943,-122.297351,55548,,
0305800,University Av:6th St,37.868157,-122.297414,51105,,
0305810,University Av:9th St,37.868791,-122.294305,59004,,
0305820,University Av:9th St,37.868600,-122.294079,55855,,
0305840,University Av:Acton St,37.870091,-122.283919,59900,,
0305860,University Av:Bait Shop,37.863834,-122.313820,58660,,
0305870,University Av:Bonar St,37.869593,-122.287612,59993,,
0305880,University Av:Bonar St,37.869836,-122.287418,57335,,
0305890,University Av:California St,37.870564,-122.279908,51600,,
0305910,University Av:Curtis St,37.869569,-122.289360,53459,,
0305920,University Av:Curtis St,37.869359,-122.289227,54755,,
0305930,University Av:Grant St,37.871215,-122.274891,51900,,
0305940,University Av:Grant St,37.871412,-122.275174,58851,,
0305950,University Av:Marina Blvd,37.864765,-122.311537,54393,,
0305980,University Av:Martin Luther King Jr Way,37.871700,-122.272872,57557,,
0305990,University Av:Martin Luther King Jr Way,37.871544,-122.272672,55988,,
0306000,University Av:Mc Gee Av,37.871052,-122.277906,58852,,
0306010,University Av:Mc Gee Av,37.870855,-122.277633,55077,,
0306040,University Av:Sacramento St,37.870586,-122.281627,55722,,
0306050,University Av:Sacramento St,37.870368,-122.281347,56667,,
0306060,University Av:San Pablo Av,37.869251,-122.291845,55365,,
0306070,University Av:San Pablo Av,37.868958,-122.292327,51000,,
0306080,University Av:Shattuck Av,37.872032,-122.268569,54466,,
0306090,University Av:W Frontage Rd,37.866399,-122.306035,57827,,
0306120,Warring St:Derby St,37.862746,-122.250130,58778,,
0306130,Warring St:Derby St,37.862456,-122.250205,54767,,
0306140,Warring St:Parker St,37.864539,-122.250266,55664,,
0306150,Warring St:Parker St,37.864243,-122.250391,59114,,
0306210,Shattuck Sq:Center St,37.870760,-122.267662,55551,,place_CSSH
0306220,Shattuck Av:Center St,37.870917,-122.267627,55678,,place_CSSH
0306250,Spruce St:Grizzley Peak Blvd,37.904381,-122.270361,56377,,
0306260,Spruce St:Vassar Av,37.902099,-122.270755,57188,,
0306270,Spruce St:#551,37.900737,-122.270144,57001,,
0306280,Spruce St:Halkin Ln,37.897871,-122.269982,51160,,
0306290,San Pablo Av:Dwight Way,37.861466,-122.289546,55880,,
0306300,San Pablo Av:University Av,37.869467,-122.292118,55525,,
0306310,San Pablo Av:University Av,37.868706,-122.292090,55111,,
0306320,San Pablo Av:Dwight Way,37.860794,-122.289583,57755,,
0306410,University Av:San Pablo Av,37.869114,-122.292544,52566,,
0306420,University Av:Shattuck Av,37.872119,-122.267984,57300,,
0306440,Dwight Crescent:7th St,37.860456,-122.294436,56450,,
0306450,7th St:Cutter Way,37.859594,-122.293981,57288,,
0306460,Mlk Way:Allston Way,37.868446,-122.272629,57837,,
0306480,Cedar St:San Pablo Av,37.875202,-122.293760,56144,,
0306490,Gilman St:4th St,37.879025,-122.303423,53007,,
0306500,Gilman St:4th St,37.878842,-122.303637,58056,,
0306510,Centennial Dr:Parking Lot,37.880416,-122.246653,57082,,
0306520,Centennial Dr:Parking Lot,37.881104,-122.246038,50991,,
0306530,Bancroft Way:Ellsworth St,37.868169,-122.264083,54655,,
0306550,Hearst Av:Arch St,37.874432,-122.264081,58558,,
0306650,University Av:Shattuck Av,37.872201,-122.268776,50444,,
0306660,Gilman St:San Pablo Av,37.880452,-122.296369,54354,,
0306670,Oxford St:University Av,37.872173,-122.266204,56521,,
0306700,Allston Way:Shattuck Av,37.869353,-122.268578,52266,,place_CSSH
0306720,Sacramento St:University Av,37.870072,-122.282080,55998,,
0306730,Berkeley Way:Oxford St,37.873254,-122.266504,50132,,
0306740,Sacramento St:Delaware St,37.873330,-122.282152,50604,,
0306750,Hearst Av:Spruce St,37.874229,-122.265217,50607,,
0400100,Redwood Rd:Mabel Av,37.702903,-122.073903,58156,,
0400110,Redwood Rd:Hyer Av,37.705434,-122.073921,58256,,
0400170,Redwood Rd:Seven Hills Rd,37.709219,-122.074117,59664,,
0400180,Redwood Rd:Mabel Av,37.703483,-122.074161,58978,,
0400190,Redwood Rd:Grove Way,37.684510,-122.073746,59494,,
0500010,Arlington Blvd:#1529,37.929572,-122.300456,54374,,
0500020,Arlington Blvd:#1525,37.929512,-122.300049,59904,,
0500030,Arlington Blvd:#1749,37.930029,-122.306435,52010,,
0500040,Arlington Blvd:Alta Vista Dr,37.938039,-122.308056,59089,,
0500050,Arlington Blvd:Barrett Av,37.934834,-122.307681,59189,,
0500060,Arlington Blvd:Barrett Av,37.934652,-122.307746,59289,,
0500070,Arlington Blvd:Brewster Dr,37.922352,-122.292490,54587,,
0500080,Arlington Blvd:Brewster Dr,37.927540,-122.296292,59914,,
0500100,Arlington Blvd:Brewster Dr,37.922241,-122.292645,55629,,
0500110,Arlington Blvd:Buckingham Dr,37.925219,-122.294216,52125,,
0500120,Arlington Blvd:Cutting Blvd,37.932469,-122.309554,56944,,
0500130,Arlington Blvd:Cutting Blvd,37.932561,-122.309388,54576,,
0500140,Arlington Blvd:Del Monte St,37.936411,-122.307243,59689,,
0500150,Arlington Blvd:Don Carol Dr,37.920921,-122.288866,59344,,
0500160,Arlington Blvd:Don Carol Dr,37.921040,-122.289081,54676,,
0500170,Arlington Blvd:Havens Pl,37.921679,-122.291260,59924,,
0500180,Arlington Blvd:Lamm Ct,37.917086,-122.284372,59881,,
0500210,Arlington Blvd:Moeser Ln,37.919530,-122.286732,54710,,
0500220,Arlington Blvd:Moeser Ln,37.919545,-122.286913,55610,,
0500230,Arlington Blvd:Potrero Av,37.929581,-122.304829,50992,,
0500240,Arlington Blvd:Potrero Av,37.929755,-122.304575,58478,,
0500250,Arlington Blvd:Rifle Range Rd,37.925600,-122.294346,56867,,
0500260,Arlington Blvd:Scenic St,37.930495,-122.306543,50201,,
0500300,Ashbury Av:Central Av,37.904809,-122.294277,50256,,
0500310,Ashbury Av:Central Av,37.904952,-122.294459,55177,,
0500320,Ashbury Av:Eureka Av (El Cerrito High School),37.908237,-122.295754,59955,,
0500330,Ashbury Av:Eureka Av (El Cerrito High School),37.908424,-122.296166,57112,,
0500350,Ashbury Av:Stockton Av,37.910337,-122.298977,50301,,
0500360,Ashbury Av:Stockton Av,37.910622,-122.299173,57856,,
0500370,Barrett Av:#6509,37.935954,-122.308954,50356,,
0500380,Barrett Av:Arlington Blvd,37.934821,-122.308001,57223,,
0500390,Barrett Av:Arlington Blvd,37.935032,-122.308004,59941,,
0500400,Barrett Av:Carquinez Av (Tehiyah Day School),37.936341,-122.311796,55459,,
0500410,Barrett Av:Carquinez Av (Tehiyah Day School),37.936448,-122.311911,51190,,
0500420,Barrett Av:Edwards Av,37.936627,-122.316209,54384,,
0500430,Barrett Av:Edwards Av,37.936421,-122.316519,54898,,
0500440,Barrett Av:Harris Av,37.934951,-122.319771,50993,,
0500450,Barrett Av:La Honda Av,37.935982,-122.309319,57670,,
0500460,Barrett Av:Tulare Av,37.936390,-122.314467,53307,,
0500470,Barrett Av:Tulare Av,37.936298,-122.314742,50996,,
0500480,Barrett Av:Tuller Av,37.935543,-122.319505,59010,,
0500490,Barrett Av:Yuba St,37.936167,-122.317584,51321,,
0500500,Barrett Av:Yuba St,37.936003,-122.317874,53317,,
0500510,Carlson Blvd:Central Av,37.902182,-122.304617,50512,,
0500520,Carlson Blvd:Central Av,37.902034,-122.304802,50523,,
0500530,Central Av:Carlson Blvd,37.901934,-122.305004,52033,,
0500540,Central Av:San Pablo Av,37.902343,-122.303107,52544,,
0500550,Central Av:San Pablo Av,37.902316,-122.302929,52066,,
0500560,Central Av:Yosemite Av,37.901748,-122.305328,50601,,
0500570,Colusa Av:Curry Av,37.902995,-122.288669,58780,,
0500580,Colusa Av:Fairmount Av,37.903894,-122.290768,52625,,
0500600,Colusa Av:Lynn Av,37.900865,-122.288409,59882,,
0500610,Cutting Blvd:Alva Av,37.931735,-122.311065,50901,,
0500620,Cutting Blvd:Hagen Blvd,37.929235,-122.311971,50956,,
0500630,Cutting Blvd:Irma Av (Alva Av),37.931494,-122.311062,51523,,
0500640,Cutting Blvd:Junction Av,37.926794,-122.315460,51601,,
0500650,Cutting Blvd:Kenilworth St,37.928074,-122.312814,51612,,
0500660,Cutting Blvd:Peerless Av,37.925278,-122.319688,59883,,
0500670,Cutting Blvd:San Pablo Av,37.925542,-122.319269,53544,,
0500680,Cutting Blvd:Snowden Av,37.927201,-122.313392,51901,,
0500690,Cutting Blvd:Wilson Way,37.929322,-122.311624,51912,,
0500700,Del Norte BART Station,37.924708,-122.316726,58885,,place_DBBA
0500720,Del Norte BART Station,37.924889,-122.316831,50111,,place_DBBA
0500730,Del Norte BART Station,37.925211,-122.317114,52555,,place_DBBA
0500750,Del Norte BART Station,37.925521,-122.317341,55001,,place_DBBA
0500760,Del Norte BART Station,37.924535,-122.316331,55524,,place_DBBA
0500770,Del Norte BART Station,37.924402,-122.316210,59667,,place_DBBA
0500810,Eastshore Blvd:Potrero Av,37.921130,-122.317339,51956,,
0500820,Eastshore Blvd:San Pablo Av,37.922976,-122.317623,52099,,
0500830,Eastshore Blvd:San Pablo Av,37.922831,-122.317349,52023,,
0500840,El Cerrito Plaza BART Station,37.902214,-122.298743,53444,,place_EBBA
0500850,El Cerrito Plaza BART Station,37.902354,-122.298866,50500,,place_EBBA
0500880,El Cerrito Plaza BART Station,37.902888,-122.299013,57286,,place_EBBA
0500890,El Cerrito Plaza BART Station,37.902537,-122.298706,51177,,place_EBBA
0500900,El Cerrito Plaza BART Station,37.902316,-122.298598,57900,,place_EBBA
0500910,Elm St:Glen Mawr St,37.926382,-122.313531,52056,,
0500920,Fairmount Av:Albermarle St,37.902890,-122.295356,52501,,
0500930,Fairmount Av:Ashbury Av,37.903183,-122.293992,53371,,
0500940,Fairmount Av:Ashbury Av,37.903256,-122.294163,52612,,
0500950,Fairmount Av:Behrens St,37.902734,-122.295459,57543,,
0500960,Fairmount Av:Colusa Av,37.904120,-122.291407,59942,,
0500980,Fairmount Av:Richmond St,37.902117,-122.297852,52912,,
0500990,Fairmount Av:San Pablo Av,37.900630,-122.302203,59946,,
0501000,Fairmount Av:San Pablo Av,37.900573,-122.303009,52923,,
0501010,Fairmount Av:Victoria St,37.902362,-122.296639,56570,,
0501080,Hill St:Liberty St,37.924657,-122.314691,53512,,
0501120,Moeser Ln:Pomona Av (Korematsu Middle School),37.914464,-122.301293,53623,,
0501130,Navellier St:Gladys Av,37.922671,-122.305658,53923,,
0501140,Navellier St:Gladys Av,37.922691,-122.305990,53956,,
0501160,Navellier St:Potrero Av,37.923856,-122.306722,57017,,
0501170,Navellier St:Potrero Av,37.923953,-122.306970,57127,,
0501180,Navellier St:Schmidt Ln,37.918165,-122.301072,57237,,
0501190,Navellier St:Seaview Pl,37.916311,-122.299806,59056,,place_NAMO
0501200,Potrero Av:Richmond St,37.922151,-122.311343,59156,,
0501210,Potrero Av:S 53rd St,37.921031,-122.319968,59256,,
0501220,Potrero Av:S 53rd St,37.920880,-122.319614,59356,,
0501230,Richmond St:Central Av,37.903670,-122.298867,59501,,
0501240,Richmond St:Central Av,37.903832,-122.298769,59512,,
0501250,Richmond St:Donal Av,37.918944,-122.308535,59523,,
0501260,Richmond St:Eureka Av,37.907546,-122.300682,56167,,
0501270,Richmond St:Eureka Av,37.907398,-122.300447,57808,,
0501280,Richmond St:Fairmount Av,37.902183,-122.298179,59964,,
0501290,Richmond St:Gladys Av,37.920455,-122.309772,56267,,
0501300,Richmond St:Gladys Av,37.920600,-122.309710,57818,,
0501310,Richmond St:Lincoln Av,37.905724,-122.299811,57828,,
0501320,Richmond St:Lincoln Av,37.905591,-122.299592,57838,,
0501330,Richmond St:Manila Av,37.917296,-122.307553,58654,,
0501340,Richmond St:Moeser Ln,37.913392,-122.304423,57868,,
0501350,Richmond St:Moeser Ln,37.913241,-122.304466,56367,,
0501360,Richmond St:Potrero Av,37.922029,-122.310885,55913,,
0501370,Richmond St:Schmidt Ln,37.915611,-122.306370,56967,,
0501380,Richmond St:Stockton Av,37.909637,-122.301928,58980,,
0501390,Richmond St:Stockton Av,37.909535,-122.301690,51301,,
0501400,Richmond St:Waldo Av,37.911470,-122.303177,54598,,
0501410,Richmond St:Waldo Av,37.911334,-122.302934,51312,,
0501420,San Pablo Av:Carlson Blvd,37.899347,-122.301866,55562,,
0501430,San Pablo Av:Carlson Blvd,37.898580,-122.301812,52221,,
0501435,San Pablo Av:Central Av,37.902337,-122.303548,59596,,
0501440,San Pablo Av:Conlon Av,37.929789,-122.321434,53372,,
0501450,San Pablo Av:Cutting Blvd,37.925038,-122.318029,51356,,
0501460,San Pablo Av:Cutting Blvd,37.925015,-122.318442,52115,,
0501470,San Pablo Av:Eureka Av,37.906381,-122.305159,59967,,
0501490,San Pablo Av:Fairmount Av,37.900202,-122.302555,52925,,
0501500,San Pablo Av:Hill St,37.922906,-122.316913,50889,,
0501510,San Pablo Av:Home Depot,37.929203,-122.321341,52230,,
0501520,San Pablo Av:Jefferson Av,37.917210,-122.312867,54345,,
0501530,San Pablo Av:Lincoln Av,37.904239,-122.304151,52325,,
0501550,San Pablo Av:Manila Av,37.915684,-122.311442,51557,,
0501560,San Pablo Av:Moeser Ln,37.911864,-122.308824,58855,,
0501570,San Pablo Av:Potrero Av,37.921202,-122.315330,55117,,
0501580,San Pablo Av:Potrero Av,37.920158,-122.314945,55506,,
0501590,San Pablo Av:Schmidt Ln,37.913913,-122.310212,51660,,
0501610,San Pablo Av:Wall Av,37.927620,-122.320216,51162,,
0501620,San Pablo Av:Wall Av,37.927822,-122.320036,56110,,
0501630,Scott St:Donal Av,37.921073,-122.303967,54743,,
0501640,Scott St:Donal Av,37.920966,-122.304027,54875,,
0501650,Scott St:Manila Av,37.919510,-122.302858,50745,,
0501660,Scott St:Manila Av,37.919634,-122.303085,50785,,
0501670,Scott St:Schmidt Ln,37.917993,-122.301926,51745,,
0501910,Arlington Blvd:Villa Nueva Dr,37.921741,-122.291106,51781,,
0501920,San Pablo Av:Moeser Ln,37.911073,-122.308615,55594,,
0501930,Del Norte BART,37.924580,-122.316258,50333,,place_DBBA
0501970,Navellier Dr:Seaview Pl,37.916053,-122.299775,51785,,place_NAMO
0501980,San Pablo Av:El Dorado St,37.903766,-122.304235,50616,,
0501990,Moeser Ln:Pomona Av (Korematsu Middle School),37.914624,-122.301246,50621,,
0502000,Moeser Ln:Pomona Av (Korematsu Middle School),37.914310,-122.301922,50623,,
0600010,40th St:Emery St,37.830607,-122.281322,54855,,
0600030,40th St:Harlan St,37.830189,-122.283446,56771,,
0600040,40th St:Harlan St,37.830483,-122.283123,56610,,
0600050,40th St:Hollis St,37.829901,-122.284881,50577,,
0600060,40th St:Hollis St,37.830057,-122.285184,57578,,
0600190,65th St:Shellmound St (Bay St),37.846228,-122.295368,56772,,
0600200,65th St:Shellmound St (Bay St),37.846139,-122.294807,52782,,
0600260,Christie St:64th St,37.843706,-122.295826,54434,,
0600270,Christie St:64th St,37.844598,-122.295946,52785,,
0600280,Christie St:65th St,37.846048,-122.296401,53734,,
0600290,Christie St:65th St,37.845658,-122.296453,51163,,
0600300,Christie St:Lyons Restaurant,37.837433,-122.294490,58617,,
0600380,Hollis St:65th St,37.847031,-122.291519,56773,,
0600390,Hollis St:67th St,37.848981,-122.292298,55843,,
0600400,Hollis St:67th St,37.849045,-122.292153,54989,,
0600410,Hollis St:40th St,37.829188,-122.285017,56779,,
0600420,Hollis St:40th St (Home Depot),37.829524,-122.285383,59559,,
0600690,San Pablo Av:37th St,37.827623,-122.278655,57751,,
0600700,San Pablo Av:40th St,37.830609,-122.279851,55505,,place_4SSP
0600730,San Pablo Av:45th St,37.834479,-122.280858,50355,,
0600750,San Pablo Av:47th St,37.835263,-122.281379,51990,,
0600760,San Pablo Av:47th St,37.835924,-122.281316,52330,,
0600810,San Pablo Av:40th St,37.831487,-122.279883,55535,,place_4SSP
0600890,Shellmound St:Bay St,37.833988,-122.293293,57988,,
0600920,40th St:Horton St,37.829439,-122.287267,52257,,
0600960,Christie Av:64th St,37.843159,-122.295504,55656,,
0600970,40th:Horton St,37.829495,-122.287962,52260,,
0600980,40th St:San Pablo Av,37.831030,-122.279367,50927,,place_4SSP
0600990,40th St:San Pablo Av,37.831075,-122.279039,50937,,place_4SSP
0601000,40th St:Adeline St,37.831134,-122.278788,50971,,place_4SSP
0601010,40th St:Adeline St,37.831194,-122.278501,50972,,place_4SSP
0601020,40th St:Adeline St,37.831389,-122.278648,50973,,place_4SSP
0601030,40th St:Adeline St,37.831574,-122.278956,51607,,place_4SSP
0601040,40th St:San Pablo Av,37.831256,-122.279337,51627,,place_4SSP
0601050,40th St:San Pablo Av,37.831202,-122.279611,51637,,place_4SSP
0601060,Shellmond St:Bay St,37.833348,-122.293641,51697,,
0601140,Christie Av:Pacific Park Plaza,37.842652,-122.295508,50148,,
0601150,40th St:Emery St,37.830802,-122.281569,50163,,
0601160,Shellmound St:Powell St,37.838437,-122.293120,50242,,
0601170,65th St:Hollis St,37.846713,-122.292158,50528,,
0700010,Albrae St:#40580 (Walmart),37.518989,-121.986581,54364,,
0700040,Alvarado Blvd:Deep Creek Rd,37.580129,-122.051043,58774,,
0700050,Alvarado Blvd:Deep Creek Rd,37.580234,-122.051906,52633,,
0700060,Alvarado Blvd:Falcon Dr,37.584580,-122.060671,58551,,
0700070,Alvarado Blvd:Great Salt Lake Ct,37.583514,-122.057801,55692,,
0700080,Alvarado Blvd:Lake Arrowhead Av,37.585757,-122.062161,51192,,
0700090,Alvarado Blvd:Merganser Dr,37.582852,-122.057164,57752,,
0700100,Ardenwood Blvd:Ardenwood Ter,37.552794,-122.053743,51193,,
0700110,Ardenwood Blvd:Commerce Dr,37.554536,-122.062190,54394,,
0700130,Ardenwood Blvd:Tan Oak Dr,37.558888,-122.063691,51654,,
0700140,Ardenwood Blvd:Tan Oak Dr,37.559332,-122.063392,58100,,
0700200,Auto Mall Pkwy:Fremont Blvd,37.511778,-121.952722,53783,,
0700210,Auto Mall Pkwy:Fremont Blvd,37.512109,-121.950037,52543,,
0700230,Auto Mall Pkwy:Osgood Rd,37.513259,-121.943656,52654,,
0700240,Auto Mall Pkwy:Osgood Rd,37.513523,-121.943749,53785,,
0700260,Auto Mall Pkwy:Technology Dr,37.510791,-121.954928,56857,,
0700270,Auto Mall Pkwy:Technology Dr,37.511324,-121.954870,57045,,
0700320,Landing Pkwy:Tennis Court,37.484620,-121.941646,57245,,
0700350,Benicia St:Auburn St,37.482616,-121.932145,51729,,
0700560,Blacow Rd:Greenpark Dr (Irvington High School),37.523069,-121.965870,51511,,
0700570,Blacow Rd:Greenpark Dr (Irvington High School),37.522930,-121.964968,57380,,
0700840,Bryant St:Cedar St,37.530047,-121.921989,57568,,
0700850,Bryant St:Pine St,37.525866,-121.920699,57805,,
0701200,Chapel Way:Carol Av (Hirsch School),37.527679,-121.962834,59913,,
0701210,Chapel Way:Laurel St (Horner Jr High School),37.529976,-121.963232,55659,,
0701260,Christy St:Stewart Av,37.513810,-121.981883,51272,,
0701270,Civic Center Dr:BART Way,37.555385,-121.978062,55951,,
0701280,Civic Center Dr:BART Way,37.555160,-121.978157,54212,,
0701300,Civic Center Dr:Mowry Av (Washington Hospital),37.556459,-121.980354,55965,,
0701310,Civic Center Dr:Stevenson Blvd,37.552200,-121.972135,55693,,
0701320,Civic Center Dr:Stevenson Blvd,37.552473,-121.972103,51275,,
0701330,Civic Center Dr:Walnut Av,37.553630,-121.975125,56002,,
0701340,Civic Center Dr:Walnut Av,37.553943,-121.975245,51671,,
0701360,Cushing Pkwy:Northport Lp E,37.489714,-121.952670,52952,,
0701370,Decoto Rd:Cabrillo Dr,37.566609,-122.036344,52911,,
0701380,Decoto Rd:Cabrillo Dr,37.566522,-122.035995,51313,,
0701390,Decoto Rd:Fremont Blvd,37.571627,-122.031504,50501,,
0701400,Decoto Rd:Mount Palomar Ct,37.572749,-122.030892,51561,,
0701410,Decoto Rd:Ozark River Way,37.568856,-122.034007,54232,,
0701420,Decoto Rd:Ozark River Way,37.568330,-122.034919,55056,,
0701430,Driscoll Rd:Amapola Dr (Hopkins Jr High School),37.546427,-121.943405,57388,,
0701480,Driscoll Rd:Durillo Dr,37.543781,-121.946029,51730,,
0701485,Driscoll Rd:Hopkins Jr High School,37.547040,-121.942400,53225,,
0701600,Durham Rd:Paseo Padre Pkwy,37.514325,-121.931631,51970,,
0701820,Fremont BART Station,37.557912,-121.975610,55597,,place_FRBA
0701830,Fremont BART Station,37.557643,-121.975928,51512,,place_FRBA
0701840,Fremont BART Station,37.557496,-121.976025,53000,,place_FRBA
0701870,Fremont BART Station,37.557715,-121.975664,51008,,place_FRBA
0701910,Fremont BART Station,37.557075,-121.975431,54004,,place_FRBA
0701920,Fremont BART Station,37.556960,-121.975303,54566,,place_FRBA
0701940,Fremont BART Station,37.557501,-121.975609,55560,,place_FRBA
0701950,Fremont BART Station,37.557249,-121.975481,58552,,place_FRBA
0701960,Fremont BART Station,37.557146,-121.975339,55027,,place_FRBA
0701980,Fremont Blvd:#38932 (Near Mowry Av),37.549489,-121.989737,55899,,
0702040,Fremont Blvd:Adams Av,37.529767,-121.958721,51669,,
0702050,Fremont Blvd:Adams Av,37.529941,-121.958556,53744,,
0702060,Fremont Blvd:Alder Av (American Sr High School),37.563424,-122.016985,55229,,
0702070,Fremont Blvd:Alder Av (American Sr High School),37.562292,-122.015315,53115,,
0702100,Fremont Blvd:Beacon Av,37.546558,-121.984742,54114,,
0702110,Fremont Blvd:Beacon Av,37.546940,-121.984824,56551,,
0702120,Fremont Blvd:Bidwell Dr,37.542266,-121.976352,56616,,
0702140,Fremont Blvd:Blacow Rd,37.524670,-121.957533,52352,,
0702150,Fremont Blvd:Bonde Way,37.558916,-122.008554,55145,,
0702160,Fremont Blvd:Carol Av,37.527570,-121.958371,56003,,
0702170,Fremont Blvd:Centerville Jr High School,37.555719,-122.001914,52959,,
0702180,Fremont Blvd:Central Av,37.556094,-122.003174,55011,,
0702190,Fremont Blvd:Chapel Way,37.534714,-121.962124,55881,,
0702220,Fremont Blvd:Country Dr,37.551033,-121.992770,55952,,
0702230,Fremont Blvd:Crestwood St,37.516912,-121.954207,52730,,
0702240,Fremont Blvd:Crestwood St,37.517010,-121.953840,57144,,
0702250,Fremont Blvd:Cushing Pkwy,37.490106,-121.948526,57162,,
0702260,Fremont Blvd:Darwin Dr,37.574423,-122.039314,52272,,
0702270,Fremont Blvd:Decoto Rd,37.570184,-122.031460,55245,,
0702280,Fremont Blvd:Decoto Rd,37.571255,-122.032872,52660,,
0702290,Fremont Blvd:Delaware Dr,37.519451,-121.955283,54141,,
0702300,Fremont Blvd:Delaware Dr,37.518557,-121.955338,54610,,
0702310,Fremont Blvd:Doane St,37.515265,-121.952808,51992,,
0702320,Fremont Blvd:Doane St,37.514719,-121.952821,52790,,
0702330,Fremont Blvd:Eggers Dr,37.552743,-121.996647,56505,,
0702340,Fremont Blvd:Eggers Dr,37.552947,-121.996513,58553,,
0702350,Fremont Blvd:Enea Ct,37.576462,-122.043500,53889,,
0702360,Fremont Blvd:Enea Ct,37.575627,-122.042519,53303,,
0702370,Fremont Blvd:Ferry Ln,37.572008,-122.035120,58801,,
0702380,Fremont Blvd:Ferry Ln,37.572450,-122.035292,57244,,
0702400,Fremont Blvd:Gibraltar Dr,37.564323,-122.019463,51751,,
0702410,Fremont Blvd:Gibraltar Dr,37.564547,-122.019247,51108,,
0702420,Fremont Blvd:Grimmer Blvd,37.535938,-121.964801,52353,,
0702430,Fremont Blvd:Haven Av,37.526767,-121.957911,56009,,
0702440,Fremont Blvd:I-880 Fwy,37.491195,-121.948539,57753,,
0702450,Fremont Blvd:Industrial Dr,37.496525,-121.948176,53445,,
0702460,Fremont Blvd:Industrial Dr,37.496437,-121.948606,53170,,
0702490,Fremont Blvd:London Com,37.550739,-121.992839,56700,,
0702500,Fremont Blvd:Michael Av,37.521382,-121.956422,55037,,
0702510,Fremont Blvd:Michael Av,37.520651,-121.956411,53675,,
0702520,Fremont Blvd:Mission View Dr,37.539245,-121.970213,52572,,
0702530,Fremont Blvd:Montrose Av,37.513249,-121.951627,52562,,
0702540,Fremont Blvd:Mowry Av,37.548003,-121.987554,56788,,
0702550,Fremont Blvd:Mowry Av,37.548307,-121.987415,57575,,
0702560,Fremont Blvd:Nicolet Av,37.565696,-122.022225,52112,,
0702570,Fremont Blvd:Nicolet Av,37.566684,-122.023561,56625,,
0702580,Fremont Blvd:Norris Rd,37.554525,-122.000116,58559,,
0702590,Fremont Blvd:Village Ter,37.554474,-121.999485,55071,,
0702610,Fremont Blvd:Papazian Way,37.534016,-121.961417,56445,,
0702620,Fremont Blvd:Parish Av,37.557252,-122.004912,53325,,
0702630,Fremont Blvd:Paseo Padre Pkwy,37.575591,-122.041632,56119,,
0702640,Fremont Blvd:Paseo Padre Pkwy,37.574695,-122.040614,56755,,
0702650,Fremont Blvd:Peralta Blvd,37.557744,-122.006269,55685,,
0702660,Fremont Blvd:Peralta Ct,37.558545,-122.007441,55787,,
0702700,Fremont Blvd:Stanley Av,37.525132,-121.957931,56229,,
0702710,Fremont Blvd:Stevenson Blvd,37.541243,-121.973679,52550,,
0702720,Fremont Blvd:Stevenson Blvd,37.540166,-121.972393,53566,,
0702730,Fremont Blvd:Sundale Dr,37.544786,-121.981343,52600,,
0702740,Fremont Blvd:Sundale Dr,37.545122,-121.981255,51011,,
0702750,Fremont Blvd:Tamayo St,37.567713,-122.026433,58722,,
0702760,Fremont Blvd:Tamayo St,37.567837,-122.025898,53563,,
0702770,Fremont Blvd:Thornton Av,37.560947,-122.012647,52523,,
0702780,Fremont Blvd:Thornton Av,37.561271,-122.012711,56055,,
0702800,Fremont Blvd:Washington Blvd,37.531701,-121.958775,52212,,
0702810,Fremont Blvd:Washington Blvd,37.532379,-121.959225,58733,,
0702820,Gallaudet Dr:In School For Deaf,37.558924,-121.964450,53970,,place_SHDF
0702830,Gallaudet Dr:In School For Deaf,37.559029,-121.964405,58956,,place_SHDF
0702840,Gallaudet Dr:Walnut Av,37.560654,-121.967187,50156,,
0702860,Grimmer Blvd:Auto Mall Pkwy,37.510063,-121.963296,52575,,
0702870,Grimmer Blvd:Blacow Rd,37.522023,-121.969149,59399,,
0702880,Grimmer Blvd:Blacow Rd,37.522037,-121.968812,55105,,
0702890,Grimmer Blvd:Carol Av,37.527310,-121.969671,59654,,
0702900,Grimmer Blvd:Carol Av,37.526897,-121.969945,56075,,
0702910,Grimmer Blvd:Davis St,37.533674,-121.967568,51143,,
0702920,Grimmer Blvd:Davis St,37.533662,-121.967952,57944,,
0702930,Grimmer Blvd:Doane St,37.512662,-121.964923,53022,,
0702940,Grimmer Blvd:Fremont Blvd,37.536075,-121.966003,52990,,
0702950,Grimmer Blvd:Fremont Blvd,37.535806,-121.965839,58812,,
0702960,Grimmer Blvd:Irvington Av,37.531838,-121.969443,56157,,
0702970,Grimmer Blvd:Irvington Av,37.532393,-121.968603,56171,,
0702980,Grimmer Blvd:Paseo Padre Pkwy,37.540696,-121.961713,59890,,
0702990,Grimmer Blvd:Seneca Park Av,37.515851,-121.967112,51201,,
0703000,Grimmer Blvd:Seneca Park Av,37.516597,-121.967191,52118,,
0703010,Grimmer Blvd:Valpey Park Av,37.519452,-121.968456,51256,,
0703020,Grimmer Blvd:Valpey Park Av,37.519669,-121.968179,51993,,
0703030,Grimmer Blvd:Yellowstone Park Dr,37.513082,-121.965506,52120,,
0703130,Kato Rd:Benicia St,37.484308,-121.933415,50844,,
0703180,Landing Pkwy:Fremont Blvd,37.488626,-121.946201,54870,,
0703250,Milmont Dr:#48501,37.466296,-121.923839,57160,,
0703270,Milmont Dr:#48641,37.463949,-121.922641,51996,,
0703280,Milmont Dr:Kato Rd,37.461725,-121.922246,57845,,
0703300,Mission Blvd:#38576 (Near Mowry Av),37.571017,-121.966316,56331,,
0703310,Mission Blvd:Antelope Dr (S Grimmer Blvd),37.507127,-121.919582,53099,,
0703320,Mission Blvd:Anza St,37.531016,-121.919345,51577,,
0703330,Mission Blvd:Anza St,37.530287,-121.919372,52218,,
0703340,Mission Blvd:Calle Amigo Dr,37.563002,-121.959103,56467,,
0703350,Mission Blvd:Calle Amigo Dr,37.562502,-121.959024,52320,,
0703360,Mission Blvd:Callery Ct,37.547252,-121.935209,51780,,
0703370,Mission Blvd:Callery Ct,37.547038,-121.935407,51844,,
0703380,Mission Blvd:Cedar St,37.528035,-121.918659,55733,,
0703390,Mission Blvd:Cougar Dr,37.513283,-121.919241,53166,,
0703400,Mission Blvd:Dalgo Rd,37.554146,-121.946844,52003,,
0703410,Mission Blvd:Castro Ln,37.550244,-121.940354,52243,,
0703420,Mission Blvd:Driscoll Rd,37.549381,-121.939409,57260,,
0703440,Mission Blvd:Esparito Av,37.551578,-121.942385,53230,,
0703450,Mission Blvd:Hunter Ln,37.520326,-121.918055,53228,,
0703470,Mission Blvd:I-680 Fwy,37.540176,-121.923947,54998,,
0703480,Mission Blvd:I-680 Fwy,37.539106,-121.923628,56520,,
0703490,Mission Blvd:Las Palmas Av,37.557906,-121.952873,52725,,
0703500,Mission Blvd:Las Palmas Av,37.558411,-121.953197,52006,,
0703520,Mission Blvd:Mackintosh St,37.554245,-121.946490,56530,,
0703530,Mission Blvd:Mill Creek Rd,37.537579,-121.922047,55072,,
0703540,Mission Blvd:Mohave Dr,37.491729,-121.927433,54224,,
0703550,Mission Blvd:Mohave Dr,37.491154,-121.927571,55277,,
0703560,Mission Blvd:Nursery Av,37.580688,-121.990760,56590,,
0703570,Mission Blvd:Nursery Av,37.580997,-121.990784,54570,,
0703580,Mission Blvd:Ondina Dr,37.551266,-121.942423,53199,,
0703590,Mission Blvd:Orchard Dr,37.571650,-121.967376,58799,,
0703600,Mission Blvd:Palm Av (Mission San Jose High Sch.),37.545116,-121.932092,55338,,
0703610,Mission Blvd:Palm Av (Mission San Jose High Sch.),37.545412,-121.932056,59558,,
0703620,Mission Blvd:Paseo Padre Pkwy,37.500898,-121.919361,52009,,
0703630,Mission Blvd:Paseo Padre Pkwy,37.499915,-121.919647,55073,,
0703640,Mission Blvd:Pine St,37.525790,-121.917704,59800,,
0703660,Mission Blvd:Starr St,37.537748,-121.922410,54580,,
0703670,Mission Blvd:Stevenson Blvd,37.561261,-121.957502,53430,,
0703680,Mission Blvd:Stevenson Blvd,37.560137,-121.956488,55079,,
0703690,Mission Blvd:Via San Dimas,37.542344,-121.926853,52780,,
0703700,Mission Blvd:Via San Dimas,37.542163,-121.927012,53780,,
0703710,Mission Blvd:Washington Blvd,37.533518,-121.920200,56603,,
0703720,Mission Blvd:Washington Blvd,37.534751,-121.920303,53053,,
0703730,Mowry Av:Argonaut Way,37.545674,-121.991025,50766,,
0703740,Mowry Av:Glenview Dr,37.538581,-121.996821,56609,,
0703750,Mowry Av:Logan Dr,37.542932,-121.993241,54520,,
0703760,Mowry Av:#2557,37.556013,-121.982581,52752,,
0703770,Mowry Av:#300,37.568633,-121.970662,57290,,
0703780,Mowry Av:Alpenrose Ct,37.527178,-122.005643,53573,,
0703790,Mowry Av:Argonaut Way,37.545961,-121.990312,57880,,
0703800,Mowry Av:Blacow Rd,37.537025,-121.998111,52844,,
0703810,Mowry Av:Bonner Av,37.562274,-121.978948,54760,,
0703820,Mowry Av:Bonner Av,37.562548,-121.978591,57820,,
0703830,Mowry Av:Cherry Ln,37.567548,-121.973080,52203,,
0703840,Mowry Av:Cherry Ln,37.567364,-121.972928,53328,,
0703850,Mowry Av:Farwell Dr,37.534111,-122.000481,55780,,
0703860,Mowry Av:Farwell Dr,37.534352,-121.999794,52577,,
0703870,Mowry Av:Lexington St,37.549560,-121.987369,53030,,
0703880,Mowry Av:Fremont Blvd,37.547774,-121.988866,50504,,
0703890,Mowry Av:Fremont Blvd,37.548169,-121.988980,55009,,
0703900,Mowry Av:Guardino Dr,37.566037,-121.975271,54530,,
0703910,Mowry Av:Guardino Dr,37.565924,-121.976018,54590,,
0703920,Mowry Av:Hastings St,37.553558,-121.984106,54771,,
0703930,Mowry Av:Lexington St,37.550604,-121.986983,50711,,
0703940,Mowry Av:Mission Blvd,37.572419,-121.968663,53844,,
0703950,Mowry Av:Parkside Dr (Washington Hosp. Emer. Ent.),37.558743,-121.979862,58044,,
0703960,Mowry Av:Parkside Dr,37.558869,-121.980231,57360,,
0703970,Mowry Av:Paseo Padre Pkwy,37.554446,-121.983849,55215,,
0703980,Mowry Av:Paseo Padre Pkwy,37.555546,-121.982494,52206,,
0703990,Mowry Av:State St,37.551271,-121.985977,55097,,
0704000,Ardenwood Blvd:Fwy 84,37.551845,-122.052400,57830,,
0704030,Niles Blvd:#37395,37.577135,-121.980187,52209,,
0704040,Niles Blvd:E St,37.578048,-121.984157,57860,,
0704050,Niles Blvd:E St,37.578153,-121.984038,57390,,
0704060,Niles Blvd:El Portal Av,37.581770,-122.000278,58670,,
0704070,Niles Blvd:El Portal Av,37.581499,-122.000254,57561,,
0704080,Niles Blvd:F St,37.577730,-121.982753,56701,,
0704090,Niles Blvd:H St,37.577175,-121.979607,58144,,
0704100,Niles Blvd:Hillview Dr,37.579189,-121.988487,57562,,
0704110,Niles Blvd:Hillview Dr,37.578807,-121.987464,56712,,
0704120,Niles Blvd:J St,37.576308,-121.976585,53360,,
0704130,Niles Blvd:J St,37.576470,-121.976558,52261,,
0704140,Niles Blvd:Nursery Av,37.579507,-121.990413,56723,,
0704150,Niles Blvd:Nursery Av,37.579779,-121.990713,54310,,
0704170,Niles Blvd:Torrano Com (East Jctn),37.580399,-121.993926,50780,,
0704180,Niles Blvd:Torrano Com (West Jctn),37.580750,-121.995540,56734,,
0704190,Niles Blvd:Vallejo St,37.576020,-121.972335,58244,,
0704200,Niles Blvd:Vallejo St,37.575679,-121.972561,56619,,
0704210,Niles Blvd:F St,37.577838,-121.982730,57850,,
0704220,Northport Lp E:Cushing Pkwy,37.490389,-121.952489,57196,,
0704230,Northport Lp E:Northport Ct,37.493727,-121.954497,57203,,
0704240,Northport Lp E:Starboard Dr,37.492713,-121.953500,57206,,
0704250,Northport Lp W:#45581,37.492424,-121.955919,57209,,
0704260,Ohlone College-Key C,37.528604,-121.913530,57563,,
0704280,Ohlone College-Key C,37.528350,-121.913386,55526,,
0704290,Ohlone College-Key D,37.530161,-121.911290,50788,,
0704300,Osgood Rd:Auto Mall Pkwy,37.513047,-121.942289,57261,,
0704310,Osgood Rd:Auto Mall Pkwy,37.512875,-121.941822,55172,,
0704320,Osgood Rd:Blacow Rd,37.525275,-121.949510,58644,,
0704330,Osgood Rd:Blacow Rd,37.525596,-121.949415,57569,,
0704340,Osgood Rd:Osgood Ct,37.515923,-121.944030,52263,,
0704350,Osgood Rd:Osgood Ct,37.516031,-121.943761,55173,,
0704360,Osgood Rd:Prune Av,37.506933,-121.938484,57920,,
0704370,Osgood Rd:Prune Av,37.507415,-121.938411,50170,,
0704380,Osgood Rd:Washington Blvd,37.532227,-121.953296,57263,,
0704390,Page Av:Kato Rd,37.468139,-121.926992,57930,,
0704400,Page Av:Milmont St,37.468721,-121.925336,57960,,
0704430,Paseo Padre Pkwy:Blackstone Way,37.572937,-122.042946,56070,,
0704440,Paseo Padre Pkwy:Blackstone Way,37.573701,-122.042008,55498,,
0704450,Paseo Padre Pkwy:Bowlingreen Com,37.577152,-122.039406,58853,,
0704470,Paseo Padre Pkwy:Chadbourne Dr,37.539679,-121.944276,59370,,
0704490,Paseo Padre Pkwy:Chaucer Dr,37.581066,-122.032998,56629,,
0704520,Paseo Padre Pkwy:Country Dr,37.556421,-121.986964,57560,,
0704530,Paseo Padre Pkwy:Country Dr,37.557033,-121.987591,55179,,
0704550,Paseo Padre Pkwy:Covington Dr,37.538657,-121.939587,59720,,
0704560,Paseo Padre Pkwy:Cree Rd,37.508916,-121.928626,50180,,
0704570,Paseo Padre Pkwy:Darwin Dr,37.580007,-122.031314,50890,,
0704575,Paseo Padre Pkwy:Darwin Dr,37.580234,-122.031215,59730,,
0704580,Paseo Padre Pkwy:Deep Creek Rd,37.567947,-122.051551,53100,,
0704590,Paseo Padre Pkwy:Deep Creek Rd,37.567603,-122.052844,51514,,
0704600,Paseo Padre Pkwy:Driscoll Rd,37.540940,-121.947841,50845,,
0704620,Paseo Padre Pkwy:Eggers Dr,37.558339,-121.990814,59780,,
0704630,Paseo Padre Pkwy:Ethel St (Near Eggers Dr),37.558876,-121.991267,52269,,
0704640,Paseo Padre Pkwy:Fremont Blvd,37.575599,-122.040572,51766,,
0704645,Paseo Padre Pkwy:Fremont Blvd,37.574643,-122.041635,57551,,
0704700,Paseo Padre Pkwy:Indian Hill Pl,37.503239,-121.924961,51845,,
0704750,Paseo Padre Pkwy:Kokoma Rd,37.509031,-121.929111,52845,,
0704760,Paseo Padre Pkwy:Langhorn Dr,37.580948,-122.036843,54650,,
0704780,Paseo Padre Pkwy:Milton St,37.577105,-122.039788,59958,,
0704790,Paseo Padre Pkwy:Mission Blvd,37.500252,-121.919831,52370,,
0704800,Paseo Padre Pkwy:Mission Blvd,37.500482,-121.920224,53390,,
0704810,Paseo Padre Pkwy:Mission View Dr,37.545404,-121.965711,56080,,
0704820,Paseo Padre Pkwy:Mission View Dr,37.544784,-121.965177,50244,,
0704830,Paseo Padre Pkwy:Mowry Av,37.555250,-121.984630,52670,,
0704840,Paseo Padre Pkwy:Mowry Av,37.555186,-121.984007,56631,,
0704850,Paseo Padre Pkwy:Ocaso Camino,37.526405,-121.929751,53845,,
0704860,Paseo Padre Pkwy:Olive Av,37.535005,-121.938468,54043,,
0704870,Paseo Padre Pkwy:Onondaga Way,37.505590,-121.927811,53670,,
0704880,Paseo Padre Pkwy:Onondaga Way,37.505542,-121.927273,56170,,
0704890,Paseo Padre Pkwy:Parkmeadow Dr,37.510649,-121.930739,52291,,
0704900,Paseo Padre Pkwy:Parkmeadow Dr,37.510186,-121.930674,54143,,
0704910,Paseo Padre Pkwy:Peralta Blvd,37.560480,-121.994211,54243,,
0704920,Paseo Padre Pkwy:Peralta Blvd,37.560589,-121.994834,56850,,
0704930,Paseo Padre Pkwy:Pine St,37.523783,-121.928658,54643,,
0704960,Paseo Padre Pkwy:Quema Dr,37.527933,-121.931186,54658,,
0704980,Paseo Padre Pkwy:Rockett Dr,37.542067,-121.961491,56370,,
0705000,Paseo Padre Pkwy:S Grimmer Blvd,37.506865,-121.928257,50644,,
0705010,Paseo Padre Pkwy:S Grimmer Blvd,37.506876,-121.928510,54943,,
0705020,Paseo Padre Pkwy:Sailway Dr,37.547094,-121.968908,56970,,
0705030,Paseo Padre Pkwy:Sailway Dr,37.547616,-121.969206,57120,,
0705040,Paseo Padre Pkwy:Senior Center,37.545995,-121.966604,55197,,
0705050,Paseo Padre Pkwy:Sequoia Rd,37.563369,-122.002589,55207,,
0705060,Paseo Padre Pkwy:Sequoia Rd,37.563690,-122.002195,57230,,
0705070,Paseo Padre Pkwy:Sioux Dr,37.513842,-121.931088,56860,,
0705080,Paseo Padre Pkwy:Sioux Dr,37.513541,-121.931473,58560,,
0705090,Paseo Padre Pkwy:Siward Dr,37.569498,-122.048621,51189,,
0705100,Paseo Padre Pkwy:Siward Dr,37.569365,-122.048443,52275,,
0705110,Paseo Padre Pkwy:Sodaville Ct,37.503214,-121.925307,54985,,
0705130,Paseo Padre Pkwy:Sylvester Dr,37.579543,-122.037625,59670,,
0705170,Paseo Padre Pkwy:Thornton Av,37.564394,-122.006693,57396,,
0705180,Paseo Padre Pkwy:Tupelo St,37.562322,-122.061542,53611,,
0705190,Paseo Padre Pkwy:Tupelo St,37.562339,-122.061818,58767,,
0705200,Paseo Padre Pkwy:Upland Way,37.520637,-121.925330,56808,,
0705220,Paseo Padre Pkwy:Walnut Av,37.551399,-121.976543,54980,,
0705230,Paseo Padre Pkwy:Walnut Av,37.551057,-121.976600,50944,,
0705240,Paseo Padre Pkwy:Warwick Rd,37.577934,-122.028781,55271,,
0705245,Paseo Padre Pkwy:Warwick Rd,37.578739,-122.029235,51644,,
0705250,Paseo Padre Pkwy:Washington Blvd,37.532698,-121.935478,56828,,
0705270,Paseo Padre Pkwy:Whitehead Ln,37.581415,-122.033162,57130,,
0705450,S Grimmer Blvd:Davenport Pl,37.508291,-121.962476,50190,,
0705460,S Grimmer Blvd:Enterprise St,37.504817,-121.958818,58245,,
0705470,S Grimmer Blvd:Fremont Blvd,37.502318,-121.949741,50787,,
0705480,S Grimmer Blvd:Fremont Blvd,37.502587,-121.949797,50230,,
0705490,S Grimmer Blvd:Ishi Dr,37.506614,-121.923805,51245,,
0705500,S Grimmer Blvd:Ishi Dr,37.506464,-121.923620,58534,,
0705510,S Grimmer Blvd:Parkmeadow Dr,37.506778,-121.932463,58645,,
0705520,S Grimmer Blvd:Parkmeadow Dr,37.506854,-121.932788,52296,,
0705530,S Grimmer Blvd:Paseo Padre Pkwy,37.507438,-121.928793,51250,,
0705540,S Grimmer Blvd:Paseo Padre Pkwy,37.507219,-121.927786,51560,,
0705550,S Grimmer Blvd:Technology Dr,37.505050,-121.958626,52350,,
0705570,Stevenson Blvd:#4445,37.535377,-121.977697,51280,,
0705580,Stevenson Blvd:Besco Dr,37.533597,-121.979270,56639,,
0705600,Stevenson Blvd:Blacow Rd,37.527843,-121.983636,53151,,
0705610,Stevenson Blvd:Blacow Rd,37.528948,-121.982357,53350,,
0705620,Stevenson Blvd:Cedar Blvd,37.519184,-121.990352,53305,,
0705630,Stevenson Blvd:Cedar Blvd,37.519066,-121.990881,52766,,
0705640,Stevenson Blvd:Civic Center Dr,37.552523,-121.971495,57906,,
0705650,Stevenson Blvd:Davis St,37.536716,-121.976611,56691,,
0705670,Stevenson Blvd:Farwell Dr,37.525427,-121.985613,56692,,
0705680,Stevenson Blvd:Fremont Blvd,37.539634,-121.973682,57759,,
0705690,Stevenson Blvd:Fremont Blvd,37.539208,-121.974490,56552,,
0705700,Stevenson Blvd:Fremont Main Library,37.550775,-121.972037,51787,,
0705730,Stevenson Blvd:Gallaudet Dr,37.557188,-121.962284,57916,,
0705740,Stevenson Blvd:Guardino Dr,37.554732,-121.966788,57926,,
0705750,Stevenson Blvd:Guardino Dr,37.554889,-121.965724,57931,,
0705760,Stevenson Blvd:Leslie St,37.543715,-121.973138,50202,,
0705770,Stevenson Blvd:Liberty St,37.546671,-121.972577,55043,,
0705780,Stevenson Blvd:Liberty St,37.546767,-121.972168,52560,,
0705790,Stevenson Blvd:Omar St,37.526358,-121.984492,56515,,
0705800,Stevenson Blvd:Police Department Entrance,37.553833,-121.968255,57936,,
0705810,Stevenson Blvd:Stevenson Com,37.543864,-121.972782,55108,,
0705840,Stevenson Blvd:Sundale Dr,37.529517,-121.982284,53622,,
0706050,Thornton Av:Allen Ct,37.559732,-122.012627,55307,,
0706060,Thornton Av:Balboa Way,37.552949,-122.017897,53560,,
0706070,Thornton Av:Cabrillo Dr,37.552407,-122.017976,56693,,
0706080,Thornton Av:Contra Costa Av,37.555130,-122.015742,56020,,
0706090,Thornton Av:Dondero Way,37.549338,-122.020473,56516,,
0706100,Thornton Av:Dusterberryway (Thornton Jr High Sch.),37.556369,-122.014786,55317,,
0706110,Thornton Av:Dusterberryway (Thornton Jr High Sch.),37.556350,-122.015146,56066,,
0706120,Thornton Av:Fremont Blvd,37.561104,-122.011247,52044,,
0706130,Thornton Av:Moraine St,37.562737,-122.009601,53423,,
0706140,Thornton Av:Moraine St,37.562746,-122.009169,56030,,
0706150,Thornton Av:Towers Way,37.550093,-122.020223,52661,,
0706160,Walnut Av:Fremont Blvd,37.546436,-121.982232,52289,,
0706170,Walnut Av:Fremont Blvd,37.546350,-121.981948,51788,,
0706180,Walnut Av:Gallaudet Dr,37.561063,-121.968135,53699,,
0706190,Walnut Av:Gallaudet Dr,37.560969,-121.968812,53911,,
0706200,Walnut Av:Godfrey Pl,37.563354,-121.964442,53766,,
0706210,Walnut Av:Godfrey Pl,37.563586,-121.964489,56090,,
0706220,Walnut Av:Guardino Dr,37.559105,-121.971765,53787,,
0706230,Walnut Av:Guardino Dr,37.559014,-121.971411,57211,,
0706240,Walnut Av:Liberty St,37.548758,-121.980122,52644,,
0706250,Walnut Av:Liberty St,37.550522,-121.979107,53922,,
0706260,Walnut Av:Mission Blvd,37.565269,-121.961689,53389,,
0706270,Walnut Av:Overacker Av,37.564913,-121.962673,52663,,
0706280,Walnut Av:Paseo Padre Pkwy,37.552732,-121.977035,55143,,
0706290,Walnut Av:Paseo Padre Pkwy,37.552725,-121.977397,52788,,
0706310,Warm Springs Blvd:Camphor Av,37.474390,-121.920801,52669,,
0706320,Warm Springs Blvd:Camphor Av,37.474704,-121.920645,55371,,
0706350,Warm Springs Blvd:E Warren Av,37.486827,-121.927601,53153,,
0706360,Warm Springs Blvd:E Warren Av,37.486587,-121.927785,53503,,
0706370,Warm Springs Blvd:Gable Dr (Near Hammond Av),37.477894,-121.922813,56991,,
0706380,Warm Springs Blvd:Gable Dr (Near Hammond Av),37.477954,-121.922536,55626,,
0706390,Warm Springs Blvd:Hackamore Ln (Mission Falls Ln),37.485306,-121.926717,56992,,
0706400,Warm Springs Blvd:Kato Rd,37.462878,-121.914170,52944,,
0706410,Warm Springs Blvd:Lippert Av,37.481563,-121.924588,59700,,
0706420,Warm Springs Blvd:Lippert Av,37.481387,-121.924824,53966,,
0706430,Warm Springs Blvd:Mayten Way,37.470601,-121.918278,53505,,
0706440,Warm Springs Blvd:Mission Blvd,37.489201,-121.928888,56626,,
0706450,Warm Springs Blvd:Mission Blvd,37.489066,-121.929187,55953,,
0706460,Warm Springs Blvd:Mission Falls Ln (Hackamore Ln),37.485143,-121.926967,53990,,
0706480,Warm Springs Blvd:Starlite Way,37.472043,-121.919453,58968,,
0706490,Warm Springs Blvd:Starlite Way,37.473275,-121.919809,55160,,
0706500,Warm Springs Blvd:Tonopah Dr,37.466919,-121.916474,53044,,
0706510,Warm Springs Blvd:Tonopah Dr,37.468255,-121.916909,57322,,
0706520,Warm Springs Blvd:Whitney Pl,37.470407,-121.918480,52991,,
0706530,Washington Blvd:Bruce Dr,37.533575,-121.952043,59607,,
0706540,Washington Blvd:Bruce Dr,37.533320,-121.951992,59617,,
0706550,Washington Blvd:Bryant St,37.532951,-121.923012,56145,,
0706560,Washington Blvd:Castillejo Rd,37.530873,-121.940346,59489,,
0706570,Washington Blvd:Ellsworth St,37.533260,-121.922085,56151,,
0706580,Washington Blvd:Fremont Blvd,37.532789,-121.957465,53315,,
0706590,Washington Blvd:Fremont Blvd,37.532588,-121.957716,55969,,
0706600,Washington Blvd:Gallegos Av,37.532360,-121.929625,55372,,
0706610,Washington Blvd:Gallegos Av,37.532157,-121.929451,56150,,
0706620,Washington Blvd:Jerome Av,37.532782,-121.925917,55218,,
0706630,Washington Blvd:Jerome Av,37.532533,-121.926416,50158,,
0706640,Washington Blvd:Luzon Dr,37.531060,-121.938085,56180,,
0706650,Washington Blvd:Meredith Dr,37.531703,-121.944690,50181,,
0706670,Washington Blvd:Olive Av,37.533266,-121.949650,56245,,
0706680,Washington Blvd:Olive Av,37.533633,-121.950102,56993,,
0706690,Washington Blvd:Palm Av,37.531977,-121.932705,53144,,
0706700,Washington Blvd:Palm Av,37.531843,-121.932262,56280,,
0706710,Washington Blvd:Starr St,37.533038,-121.923862,53788,,
0706720,Washington Blvd:Weigand Ct,37.531386,-121.937190,55243,,
0706750,Fremont Blvd:Baine Av,37.558716,-122.007764,55799,,
0706760,Fremont Blvd:Bidwell Dr,37.542902,-121.976422,55686,,
0706780,Mowry Av:Alpenrose Dr (Swiss Park),37.526287,-122.006869,55156,,
0706790,Walnut Av:Walnut Circle,37.561746,-121.965938,50722,,
0706810,Curie St:Boscell Av,37.500817,-121.972144,56160,,
0706820,Curie St:S Pacific Common Blvd,37.502336,-121.970339,56380,,
0706830,Christy St:Curie St,37.504158,-121.969206,56855,,
0706840,Mission Blvd:King Av,37.588510,-122.000066,57576,,
0706850,Mission Blvd:King Av,37.587837,-121.999772,53440,,
0706870,Fremont Blvd:Ingot St,37.499458,-121.948859,50245,,
0706930,Mission Blvd:Niles Blvd,37.576039,-121.971345,56252,,
0706960,Cushing Pkwy:Fremont Blvd,37.490552,-121.949891,56820,,
0706970,Walnut Avd:Liberty St,37.549156,-121.980166,56155,,
0706980,Mission Blvd:Niles Canyon Rd,37.576880,-121.971770,55190,,
0707200,Cushing Pkwy:Northport Loop W,37.489420,-121.955550,54221,,
0707230,Ardenwood Blvd:Commerce Dr,37.555967,-122.062467,55260,,
0707240,Ardenwood Blvd:Commerce Dr,37.556114,-122.062829,51401,,
0707250,Alvarado Niles Blvd:Rancho Arroyo Pkwy,37.580231,-121.994271,51372,,
0707260,Mowry Av:Sutter Dr,37.538522,-121.996450,56525,,
0707270,Mowry Av:Logan Dr,37.542868,-121.992861,57611,,
0707280,Decoto Rd:Brookmill Dr,37.574734,-122.029102,55120,,
0707290,Decoto Rd:Brookmill Dr,37.574771,-122.028604,56250,,
0707300,Boscell Av:Braun Dr,37.502046,-121.974908,55290,,
0707310,Osgood Rd:Washington Blvd,37.530566,-121.952608,51412,,
0707330,Washington Blvd:Meredith Dr,37.531888,-121.944596,52993,,
0707340,Mission Blvd:Walnut Av,37.565840,-121.961617,56260,,
0707350,Ardenwood P & R Lot,37.551335,-122.054836,51397,,
0707520,Landing Pkwy#46401,37.486835,-121.941587,50349,,
0707530,Landing Pkwy#46555,37.484761,-121.941774,50351,,
0707550,Christy St:Albrae St,37.507033,-121.974005,50357,,
0707590,Stewart Av:Albrae Av,37.517581,-121.981612,50367,,
0707600,Stewart Av:Albrae Av,37.517040,-121.981897,50373,,
0707610,Albrae St:Stevenson Blvd,37.520066,-121.988927,50375,,
0707630,Christy St:Albrae Av,37.506906,-121.974094,50385,,
0800010,2nd St:#24237 (Rear Of Hayward High School),37.669612,-122.070955,57756,,
0800020,2nd St:#24514,37.668655,-122.068069,56350,,
0800030,2nd St:#24535,37.668530,-122.067691,56360,,
0800040,2nd St:Acacia Dr,37.670969,-122.074079,57622,,
0800050,2nd St:Acacia Dr,37.671165,-122.074193,54242,,
0800060,2nd St:B St,37.674847,-122.078886,55089,,
0800070,2nd St:Canyon View Ct,37.667669,-122.061265,56950,,
0800080,2nd St:D St,37.673311,-122.077495,52524,,
0800090,2nd St:D St,37.673215,-122.077701,59788,,
0800100,2nd St:E St,37.671811,-122.075602,54450,,
0800110,2nd St:Patricia Ct,37.668845,-122.065436,55397,,
0800120,2nd St:Sylvan Glen Ct,37.668687,-122.065724,56960,,
0800130,2nd St:Walpert St (Rear Of Hayward High School),37.670111,-122.072271,50733,,
0800140,2nd St:Walpert St,37.670215,-122.072166,54355,,
0800160,A St:Alice St,37.670087,-122.091504,59560,,
0800180,A St:Filbert St,37.668255,-122.096062,56526,,
0800190,A St:Filbert St,37.668723,-122.095696,59665,,
0800200,A St:Flagg St,37.669886,-122.092856,50580,,
0800210,A St:Grand St,37.670752,-122.090157,52996,,
0800220,A St:Happyland Av,37.666228,-122.105443,54766,,
0800230,A St:Hathaway Av,37.666634,-122.103222,53644,,
0800240,A St:Myrtle St,37.669247,-122.093557,50130,,
0800250,A St:Santa Clara St,37.666241,-122.102686,50850,,
0800260,Amador St:#24607,37.655394,-122.091254,55189,,
0800270,Amador St:#24607,37.655199,-122.091330,53002,,
0800280,Amador St:#24660,37.654126,-122.090487,52232,,
0800290,Amador St:Elmhurst St,37.656664,-122.093024,57633,,
0800300,Amador St:Elmhurst St,37.656513,-122.093079,53515,,
0800310,Amador St:W Jackson St,37.653546,-122.090327,59005,,
0800320,Amador St:W Winton Av,37.658511,-122.094257,53433,,
0800330,Amador St:W Winton Av,37.658234,-122.094428,50799,,
0800340,Arden Rd:Danti Ct,37.620648,-122.107767,53006,,
0800350,Arden Rd:Danti Ct,37.620498,-122.107781,53944,,
0800420,B St:2nd St,37.675044,-122.079839,50225,,
0800430,B St:3rd St,37.676356,-122.077945,55289,,
0800440,B St:3rd St,37.676528,-122.077416,53009,,
0800450,B St:4th St,37.677914,-122.075464,59878,,
0800460,B St:4th St,37.677745,-122.075994,51534,,
0800470,B St:5th St,37.678469,-122.074150,58230,,
0800480,B St:5th St,37.678649,-122.074020,58920,,
0800490,B St:6th St,37.679264,-122.072285,56440,,
0800500,B St:6th St,37.679188,-122.072789,59044,,
0800510,B St:7th St,37.680189,-122.070099,50776,,
0800520,B St:7th St,37.680075,-122.070672,50303,,
0800530,B St:Foothill Blvd,37.673857,-122.081357,51513,,
0800540,B St:Linden St,37.681503,-122.067981,52557,,
0800550,B St:Linden St,37.681568,-122.067586,53116,,
0800560,B St:Madrone St,37.682221,-122.066684,53119,,
0800570,B St:Main St,37.672650,-122.083161,53351,,
0800580,B St:Mission Blvd,37.671950,-122.084393,55325,,
0800590,B St:Pearl Av,37.683355,-122.064753,53577,,
0800600,B St:Vermont St,37.683006,-122.065055,55328,,
0800680,C St:Foothill Blvd (1st St),37.673293,-122.079536,56561,,
0800690,C St:Main St,37.672162,-122.081037,57811,,
0800700,C St:Mission Blvd,37.670918,-122.083060,55050,,
0800710,Cabot Blvd:#21121 (Railroad Crossing),37.645301,-122.137652,58960,,
0800720,Cabot Blvd:#21270,37.642821,-122.137130,51568,,
0800730,Cabot Blvd:#21270,37.642476,-122.137191,56987,,
0800740,Cabot Blvd:Bernhardt St,37.639430,-122.133817,51645,,
0800750,Cabot Blvd:Bernhardt St,37.639986,-122.134093,59144,,
0800760,Cabot Blvd:Davis Av,37.646412,-122.137435,56798,,
0800770,Cabot Blvd:Kidder St,37.641112,-122.135342,59787,,
0800780,Cabot Blvd:Kidder St,37.640424,-122.134938,51680,,
0800790,Cabot Blvd:Radley Ct,37.648389,-122.137536,57450,,
0800800,Cabot Blvd:Radley Ct,37.647990,-122.137740,50767,,
0800810,Cabot Blvd:W Winton Av,37.652027,-122.138781,50710,,
0800970,Campus Dr:Highland Blvd,37.662152,-122.058107,59244,,
0800980,Campus Dr:Highland Blvd,37.662166,-122.057908,55822,,
0800990,Campus Dr:Oakes Dr,37.665273,-122.055891,55230,,
0801000,Campus Dr:Oakes Dr,37.665228,-122.056076,51260,,
0801030,City Center Dr:Centennial Hall,37.679521,-122.081675,51710,,
0801040,City Center Dr:Centennial Hall,37.679526,-122.081914,55702,,
0801050,City Center Dr:Foothill Blvd,37.680446,-122.084805,59644,,
0801060,City Center Dr:Foothill Blvd (North Jctn),37.680340,-122.084622,55943,,
0801070,Clawiter Rd:#25823,37.631887,-122.119829,51820,,
0801080,Clawiter Rd:#25823,37.631976,-122.119653,51830,,
0801090,Clawiter Rd:American Av,37.646207,-122.120147,54470,,
0801100,Clawiter Rd:American Av,37.646291,-122.119896,57510,,
0801110,Clawiter Rd:Breakwater Av,37.629999,-122.120259,51860,,
0801120,Clawiter Rd:Breakwater Av,37.630276,-122.119892,51891,,
0801130,Clawiter Rd:Commerce Pl,37.643912,-122.120075,51290,,
0801140,Clawiter Rd:Depot Rd,37.638319,-122.119859,53302,,
0801150,Clawiter Rd:Diablo Av,37.635998,-122.119852,51895,,
0801160,Clawiter Rd:Diablo Av,37.635965,-122.119677,51945,,
0801170,Clawiter Rd:Enterprise Av,37.633477,-122.119837,51767,,
0801180,Clawiter Rd:Enterprise Av,37.633633,-122.119662,54480,,
0801190,Clawiter Rd:Industrial Blvd,37.641844,-122.119680,55389,,
0801200,Clawiter Rd:W Winton Av,37.652433,-122.120371,54420,,
0801210,Clawiter Rd:W Winton Av,37.652428,-122.120116,56721,,
0801220,Clawiter Rd:West St,37.644142,-122.119838,56732,,
0801230,Corporate Av:#26460,37.626506,-122.113308,52360,,
0801240,Corporate Av:#26460,37.626681,-122.113246,52390,,
0801250,Corporate Av:#26587,37.624005,-122.111942,52767,,
0801260,Corporate Av:Arden Rd,37.621701,-122.112064,53120,,
0801270,Corporate Av:Arden Rd,37.621988,-122.111767,53767,,
0801280,Corporate Av:Corporate Pl,37.624589,-122.111763,56015,,
0801300,D St:#1797 (Next To Sulpher Creek Nature Center),37.677864,-122.064872,58450,,
0801310,D St:#7597 (Near Sulpher Creek Nature Center),37.677964,-122.065087,56016,,
0801320,D St:2nd St,37.673263,-122.077301,55703,,
0801330,D St:2nd St,37.673366,-122.076931,50938,,
0801340,D St:5th St,37.675642,-122.072361,50140,,
0801350,D St:5th St,37.675724,-122.072502,53306,,
0801360,D St:6th St,37.676390,-122.070534,55706,,
0801370,D St:7th St,37.677038,-122.068293,52358,,
0801380,D St:7th St,37.677122,-122.068422,53309,,
0801390,D St:Atherton St,37.668785,-122.084227,50335,,
0801400,D St:Grand St,37.666483,-122.087612,55360,,
0801410,D St:Kings Ct,37.676260,-122.070573,56125,,
0801420,D St:Meek Av,37.663914,-122.087796,51722,,
0801430,D St:Meek Av,37.664472,-122.087511,55390,,
0801440,D St:Valley St,37.674467,-122.075402,55421,,
0801450,D St:Valley St,37.674877,-122.074950,53316,,
0801460,Depot Rd:Clawiter Rd,37.638556,-122.119371,55801,,
0801470,Depot Rd:Connecticut St,37.638245,-122.129108,56126,,
0801480,Depot Rd:Connecticut St,37.638090,-122.129461,50340,,
0801490,Depot Rd:Foley St,37.638113,-122.132076,50810,,
0801500,Depot Rd:Industrial Blvd,37.638725,-122.118245,55709,,
0801510,Depot Rd:Viking St,37.638450,-122.125271,51450,,
0801520,Depot Rd:Viking St,37.638297,-122.124432,51810,,
0801610,Dobbel Av:Farm Hill Dr,37.648442,-122.036046,55981,,
0801620,Dobbel Av:Riggs Ct,37.647380,-122.033913,56190,,
0801630,Dobbel Av:Trimble Ct,37.651480,-122.040595,52450,,
0801640,Dyer St:Whipple Rd,37.604462,-122.068923,58859,,
0801650,E St:Bret Harte Middle School,37.670212,-122.079055,56040,,
0801660,Eden Landing Rd:Clawiter Rd,37.626393,-122.121737,56460,,
0801670,Eden Landing Rd:Investment Blvd,37.624776,-122.122328,52382,,
0801680,Eden Landing Rd:Point Eden Way,37.625226,-122.122422,52383,,
0801690,Evergreen St:Eldridge Av,37.646926,-122.089895,55716,,
0801700,Evergreen St:Regal Av,37.644866,-122.086761,53319,,
0801710,Evergreen St:Regal Av,37.644893,-122.087130,55719,,
0801720,Evergreen St:Underwood Av,37.644552,-122.083853,55726,,
0801730,Evergreen St:Underwood Av,37.644434,-122.083912,54460,,
0801740,Evergreen St:W Harder Rd,37.647076,-122.089787,55620,,
0801750,Folsom Av:Harvey Av,37.624921,-122.069802,52385,,
0801760,Folsom Av:Harvey Av,37.624832,-122.069601,58510,,
0801770,Folsom Av:Tampa Av,37.624334,-122.074786,55812,,
0801780,Folsom Av:Tampa Av,37.624471,-122.074991,56235,,
0801790,Folsom Av:Thackeray Av,37.624453,-122.072193,56236,,
0801800,Folsom Av:Thackeray Av,37.624610,-122.072005,52412,,
0801820,Foothill Blvd:A St,37.675626,-122.082009,54490,,
