stop_id,stop_code,stop_name,stop_desc,stop_lat,stop_lon,zone_id,stop_url,location_type,parent_station,stop_timezone,wheelchair_boarding
1-000,,AIRWAY PARK & RIDE,,37.697607,-121.800671,,,,,,
1-001,,MURRIETA & OLIVINA,,37.683326,-121.790903,,,,,,
1-002,,MURRIETA BLVD & PINE ST,,37.688216,-121.7908,,,,,,
1-003,,JACK LONDON & MURRIETA,,37.693459,-121.788315,,,,,,
1-004,,MURRIETA BLVD & PORTOLA AVE,,37.694695,-121.784947,,,,,,
1-005,,AIRWAY BLVD & PORTOLA AVE,,37.697141,-121.786338,,,,,,
1-006,,AIRWAY BLVD & SUTTER ST,,37.699287,-121.789642,,,,,,
1-007,,RUTAN CT & RICKENBACKER PL,,37.692003,-121.8005,,,,,,
1-010,,KITTYHAWK & ARMSTRONG,,37.700557,-121.812493,,,,,,
1-011,,KITTYHAWK & ARMSTRONG,,37.700605,-121.81531,,,,,,
1-012,,KITTYHAWK RD & AIRWAY BLVD,,37.700027,-121.817166,,,,,,
1-014,,NORTH CANYON PLWY & CONSTITUTION DR,,37.704568,-121.816848,,,,,,
1-015,,NORTH CANYON PKWY & INDEPENDENCE DR,,37.704232,-121.811157,,,,,,
1-016,,NORTH CANYON PKWY & TRIAD DR,,37.705753,-121.807685,,,,,,
1-017,,LAS POSITAS COLLEGE,,37.710383,-121.799763,,,,,,
1-018,,NORTH CANYON PKWY & TRIAD DR,,37.704971,-121.809999,,,,,,
1-019,,NORTH CANYON PKWY & INDEPENDENCE  DR,,37.704091,-121.813047,,,,,,
1-020,,NORTH CANYON PKWY & CONSTITUTION DR,,37.704436,-121.817936,,,,,,
1-022,,KITTYHAWK RD& AIRWAY BLVD,,37.699831,-121.817143,,,,,,
1-023,,KITTYHAWK & ARMSTRONG,,37.700586,-121.814336,,,,,,
1-024,,KITTYHAWK RD & FORD DEALER,,37.700392,-121.808875,,,,,,
1-026,,RUTAN DR & RICKENBACKER PL,,37.691985,-121.800477,,,,,,
1-027,,AIRWAY BLVD & SUTTER ST,,37.700203,-121.793819,,,,,,
1-028,,AIRWAY BLVD & VIA MATEO,,37.698027,-121.787687,,,,,,
1-029,,AIRWAY BLVD & PORTOLA AVE,,37.696364,-121.785263,,,,,,
1-030,,MURRIETA BLVD & PORTOLA AVE,,37.695114,-121.784694,,,,,,
1-031,,MURRIETA BLVD & DEL NORTE DR,,37.693833,-121.787593,,,,,,
1-032,,MURRIETA BLVD & PINE ST,,37.687868,-121.790973,,,,,,
1-033,,MURRIETA BLVD & OLIVINA AVE,,37.682318,-121.791065,,,,,,
1-034,,CHESTNUT ST & M ST,,37.684399,-121.773912,,,,,,
1-035,,OLIVINA AVE & P ST,,37.683024,-121.779067,,,,,,
1-036,,OLIVINA AVE & JAMES ST,,37.68301,-121.781746,,,,,,
1-037,,OLIVINA AVE & RINCON AVE,,37.682977,-121.783623,,,,,,
1-039,,OLIVINA AVE & ALBATROSS AVE,,37.682937,-121.786966,,,,,,
1-040,,OLIVINA AVE & MEADOWLARK ST,,37.682913,-121.788912,,,,,,
1-041,,PINE ST & COMANCHE CT,,37.6884,-121.788773,,,,,,
1-042,,PINE ST & ALGONQUIN AVE,,37.688414,-121.785877,,,,,,
1-043,,PINE ST & RINCON AVE,,37.688349,-121.783736,,,,,,
1-044,,P STREET & PINE,,37.688969,-121.780621,,,,,,
1-049,,P ST & LINDEN ST,,37.686612,-121.779459,,,,,,
1-050,,P ST & OLIVINA AVE,,37.683567,-121.778013,,,,,,
1-053,,NORTH P ST & PARK ST,,37.684674,-121.778514,,,,,,
1-055,,P STREET & PINE,,37.688879,-121.780553,,,,,,
1-056,,PINE ST & RINCON AVE,,37.688376,-121.783771,,,,,,
1-057,,PINE ST & IROQUOIS AVE,,37.688428,-121.789197,,,,,,
1-060,,RUTAN DR & SONIC AVE,,37.694938,-121.800036,,,,,,
1-061,,RUTAN DR & SONIC AVE,,37.695072,-121.800127,,,,,,
1-066,,PREMIUM OUTLETS,,37.697353,-121.84529,,,,,,
1-067,,PREMIUM OUTLETS,,37.696906,-121.844421,,,,,,
1-401,,OLIVINA AVE & THRASHER AVE,,37.682838,-121.792449,,,,,,
1-402,,HAGEMANN PARK,,37.68285,-121.795197,,,,,,
1-403,,OLIVINA AVE & SWALLOW DR,,37.682818,-121.797486,,,,,,
1-404,,OLIVINA AVE & HAGEMANN DR,,37.682794,-121.799879,,,,,,
1-405,,HAGEMANN DR & GULL WY,,37.685312,-121.801499,,,,,,
1-406,,HAGEMANN RD & SWAN DR,,37.687479,-121.800659,,,,,,
1-407,,HAGEMANN RD & JACK LONDON BLVD,,37.688755,-121.800736,,,,,,
1-408,,RANCHO LAS POSITAS SCHOOL,,37.689053,-121.796396,,,,,,
1-409,,JACK LONDON BLVD & TURINO ST,,37.689041,-121.793878,,,,,,
1-413,,JACK LONDON BLVD & ROMA  ST,,37.68906,-121.794656,,,,,,
1-414,,JACK LONDON BLVD & MURIETTA  BLVD,,37.689047,-121.792023,,,,,,
1-415,,JACK LONDON BLVD & ARLINGTON RD,,37.689063,-121.797392,,,,,,
1-416,,HAGEMAN RD & TAMALPAIS AVE,,37.68839,-121.800657,,,,,,
1-417,,HAGEMAN DR & OLYMPIC WY,,37.686766,-121.800958,,,,,,
1-418,,HAGEMAN DR & GULL WY,,37.685241,-121.801556,,,,,,
1-419,,HAGEMAN DR & CASCADE AVE,,37.683591,-121.801915,,,,,,
1-420,,OLIVINA AVE & HAGEMAN DR,,37.68259,-121.801047,,,,,,
1-421,,OLIVINA AVE & TURNSTONE DR,,37.682784,-121.798848,,,,,,
1-422,,HAGEMANN PARK,,37.682824,-121.795345,,,,,,
1-423,,OLIVINA AVE & THRASHER AVE,,37.68282,-121.79269,,,,,,
1-424,,OLIVINA AVE & MARIPOSA AVE,,37.682869,-121.78937,,,,,,
1-425,,OLIVINA AVE & ALBATROSS  AVE,,37.682919,-121.786519,,,,,,
1-426,,OLIVINA AVE & ADELLE ST,,37.683007,-121.779353,,,,,,
1-427,,CHESTNUT ST & NORTH O,,37.6836,-121.776524,,,,,,
1-428,,CHESTNUT ST & NORTH K,,37.684994,-121.771759,,,,,,
1-429,,CHESTNUT ST & NORTH I,,37.685908,-121.768734,,,,,,
1-430,,CHESTNUT ST & JUNCTION AVE,,37.686923,-121.76714,,,,,,
2-003,,PRESTON AVE & PULLMAN ST,,37.709245,-121.715495,,,,,,
2-004,,PRESTON AVE & COMMERCE WY,,37.709981,-121.712939,,,,,,
2-006,,PRESTON ST & LAS POSITAS RD,,37.70753,-121.710176,,,,,,
2-007,,LAS POSITAS RD & PULLMAN ST,,37.705903,-121.7127,,,,,,
2-008,,LAS POSITAS RD & VASCO RD,,37.703328,-121.719155,,,,,,
2-010,,VASCO RD & LAS POSITAS RD,,37.702196,-121.720132,,,,,,
2-011,,VASCO & BRISA  ACE STATION,,37.698936,-121.718299,,,,,,
2-012,,FIRST ST & SCOTT ST,,37.687961,-121.757945,,,,,,
2-013,,FIRST ST & PORTOLA AVE,,37.690132,-121.753886,,,,,,
2-014,,FIRST ST & PORTOLA AVE,,37.691119,-121.751903,,,,,,
2-015,,FIRST ST & MINES RD,,37.695008,-121.746019,,,,,,
2-017,,SPRINGTOWN BLVD & BLUEBELL DR,,37.705322,-121.740905,,,,,,
2-018,,SPRINGTOWN BLVD & RHODODENDRON DR,,37.708167,-121.745077,,,,,,
2-020,,SPRINGTOWN BLVD & OLEANDER DR,,37.712732,-121.747938,,,,,,
2-021,,SPRINGTOWN BLVD & RHODODENDRON DR,,37.716042,-121.747929,,,,,,
2-022,,BLUEBELL & GALLOWAY,,37.719091,-121.746637,,,,,,
2-023,,BLUEBELL DR & NORTH LIVERMORE PARK,,37.718784,-121.744428,,,,,,
2-024,,BLUEBELL DR & CAPRICONUS AVE,,37.717217,-121.741454,,,,,,
2-025,,SCENIC AVE & AQUARIUS ST,,37.717059,-121.73755,,,,,,
2-026,,SCENIC AVE & HEATHER LN,,37.717033,-121.73337,,,,,,
2-027,,BROADMOOR ST & GREENWICH ST,,37.718861,-121.732574,,,,,,
2-028,,BROADMOOR ST & BRIDGEPORT CIR,,37.721216,-121.732509,,,,,,
2-030,,BROADMOOR ST & HAGGIN OAKS AVE,,37.726124,-121.732494,,,,,,
2-031,,DALTON & VASCO,,37.726953,-121.727212,,,,,,
2-032,,SCENIC AVE & VASCO RD,,37.717026,-121.724826,,,,,,
2-033,,SCENIC AVE & LEO CROCE SCHOOL,,37.717048,-121.727002,,,,,,
2-034,,SCENIC AVE & BROADMOOR ST,,37.717042,-121.733244,,,,,,
2-035,,HEATHER LN & IRIS WY,,37.713055,-121.734034,,,,,,
2-036,,BLUEBELL DR & HEATHER LN,,37.711067,-121.735105,,,,,,
2-037,,BLUEBELL DR & SUNFLOWER CT,,37.707927,-121.735619,,,,,,
2-038,,BLUEBELL & LAS FLORES,,37.706273,-121.738303,,,,,,
2-039,,FIRST ST & LAS POSITAS RD,,37.697903,-121.743343,,,,,,
2-040,,MINES & FIRST,,37.694172,-121.747681,,,,,,
2-041,,FIRST ST &  PORTOLA  AVE,,37.69055,-121.753336,,,,,,
2-042,,LIVERMORE HIGH SCHOOL,,37.680597,-121.761948,,,,,,
2-043,,JUNCTION AVE & CHESTNUT ST,,37.687164,-121.767323,,,,,,
2-044,,610   ENOS WY,,37.688933,-121.768761,,,,,,
2-045,,766   ENOS WY,,37.690735,-121.768413,,,,,,
2-046,,PORTOLA AVE & NORTH LIVERMORE AVE,,37.691168,-121.771434,,,,,,
2-047,,4992 NORTH  LIVERMORE AVE,,37.694186,-121.77311,,,,,,
2-048,,4750 NORTH LIVERMORE AVE,,37.696212,-121.773219,,,,,,
2-050,,LIVERMORE TARGET,,37.701099,-121.74915,,,,,,
2-067,,LAS POSITAS RD & PLAZA DR,,37.698822,-121.743397,,,,,,
2-068,,LIVERMORE TARGET,,37.699923,-121.745112,,,,,,
2-069,,LAS POSITAS & WAL-MART,,37.698401,-121.769607,,,,,,
2-070,,NORTH LIVERMORE AVE & LAS POSITAS RD,,37.696203,-121.773448,,,,,,
2-071,,NORTH LIVERMORE AVE & CROMWELL WY,,37.693071,-121.773295,,,,,,
2-072,,PORTOLA  AVE & NORTH LIVERMORE AVE,,37.691034,-121.771446,,,,,,
2-073,,ENOS WY & PORTOLA AVE,,37.690824,-121.768401,,,,,,
2-074,,ENOS WY & JUNCTION AVE,,37.688291,-121.768877,,,,,,
2-075,,JUNCTION AVE & CHESTNUT ST,,37.686753,-121.766786,,,,,,
2-077,,CHESTNUT ST & NORTH LIVERMORE AVE,,37.685491,-121.770201,,,,,,
2-078,,GARAVENTA RANCH RD & PERIWINKLE COM,,37.72273,-121.721406,,,,,,
2-079,,GARAVENTA RANCH RD & MARALISA LN,,37.722682,-121.719505,,,,,,
2-081,,GARAVENTA RANCH RD & SCENIC AVE,,37.717279,-121.717392,,,,,,
2-082,,SCENIC AVE & RIDGESTONE RD,,37.71702,-121.721642,,,,,,
2-085,,LAS POSITAS RD & NORTH MINES RD,,37.699932,-121.761222,,,,,,
2-086,,JUNCTION AVE MIDDLE SCHOOL,,37.686825,-121.767244,,,,,,
2-087,,LAS POSITAS RD & NORTH MINES RD,,37.699995,-121.761496,,,,,,
2-088,,FIRST ST & INMAN ST,,37.684757,-121.762876,,,,,,
2-089,,LAS POSITAS & MOUNTAIN VISTA,,37.712311,-121.700723,,,,,,
2-090,,LAS POSITAS & WAL-MART,,37.698321,-121.769355,,,,,,
2-093,,LAS POSITAS RD & LAWRENCE DR,,37.709822,-121.705152,,,,,,
2-094,,LAS POSITAS RD & PRESTON AVE,,37.707039,-121.709983,,,,,,
2-097,,LAS POSITAS RD & VASCO RD,,37.703363,-121.718892,,,,,,
2-098,,LAS POSITAS RD & PULLMAN ST,,37.70537,-121.713973,,,,,,
2-099,,LAS POSITAS RD & PRESTON AVE,,37.707083,-121.709799,,,,,,
2-100,,LAS POSITAS RD & LAWERENCE  DR,,37.709751,-121.70513,,,,,,
2-101,,LAS POSITAS & MOUNTAIN VISTA,,37.712284,-121.700437,,,,,,
2-102,,SOUTHFRONT RD & MOUNTAIN VISTA PKWY,,37.715188,-121.702443,,,,,,
2-103,,LAS POSTIAS RD & ARROYO VISTA,,37.697151,-121.741914,,,,,,
2-105,,LAS POSITAS RD & CONTRACTORS ST,,37.695949,-121.738609,,,,,,
2-106,,LAS POSITAS RD & BENNETT DR,,37.697367,-121.733189,,,,,,
2-107,,285 LAS POSITAS RD,,37.700627,-121.725255,,,,,,
2-109,,5860 LAS POSITAS RD,,37.700583,-121.725725,,,,,,
2-110,,LAS POSITAS RD & ARROYO VISTA,,37.697222,-121.741696,,,,,,
2-111,,LAS POSITAS RD & BENNETT DR,,37.697421,-121.73344,,,,,,
2-120,,FIRST ST & INMAN ST,,37.685139,-121.762097,,,,,,
2-118,,FIRST ST & LAS POSITAS RD,,37.698526,-121.742597,,,,,,
2-394,,NATIONAL DR & GREENVILLE RD,,37.704227,-121.700603,,,,,,
2-395,,NATIONAL DR & LONGFELLOW CT,,37.701459,-121.704001,,,,,,
2-396,,BRISA ST & NATIONAL DR,,37.701533,-121.71402,,,,,,
3-002,,STANLEY & MURDELL,,37.676646,-121.799926,,,,,,
3-003,,STANLEY BLVD & EL CAMINITO,,37.677228,-121.794557,,,,,,
3-005,,STANLEY BLVD & MURRIETA BLVD,,37.678048,-121.787149,,,,,,
3-006,,VALLEY CARE LIVERMORE CAMPUS,,37.678968,-121.78171,,,,,,
3-007,,RAILROAD AVE & P ST,,37.680756,-121.778031,,,,,,
3-008,,RAILROAD AVE & N ST,,37.681635,-121.775087,,,,,,
3-009,,RAILROAD AVE & STATION SQUARE,,37.682266,-121.773288,,,,,,
3-010,,RAILROAD AVE & P ST,,37.68089,-121.778065,,,,,,
3-011,,VALLEY CARE LIVERMORE CAMPUS,,37.679102,-121.781869,,,,,,
3-012,,STANLEY BLVD & WALL ST,,37.677785,-121.790698,,,,,,
3-013,,STANLEY & MURDELL,,37.676453,-121.802639,,,,,,
3-014,,RAILROAD AVE & L ST,,37.682656,-121.771559,,,,,,
3-015,,FOURTH ST & M ST,,37.678204,-121.772062,,,,,,
3-016,,4TH & P STREET,,37.677458,-121.774559,,,,,,
3-017,,HOLMES ST & MURIETTA BLVD,,37.675559,-121.779896,,,,,,
3-018,,HOLMES ST & MOCHO ST,,37.672427,-121.780511,,,,,,
3-019,,HOLMES ST & ELAINE AVE,,37.66918,-121.780465,,,,,,
3-020,,HOLMES ST & EL CAMINITO,,37.667518,-121.780444,,,,,,
3-021,,HOLMES & CONCANNON,,37.662334,-121.780364,,,,,,
3-022,,CONCANNON BLVD & BARCELONA ST,,37.660883,-121.782565,,,,,,
3-024,,CONCANNON BLVD & NIAGARA DR,,37.660854,-121.78736,,,,,,
3-025,,CONCANNON BLVD & PULSAR AVE,,37.66084,-121.79013,,,,,,
3-026,,EL PADRO DR & TINA WY,,37.661699,-121.792222,,,,,,
3-027,,MENDENHALL MIDDLE SCHOOL,,37.663528,-121.792252,,,,,,
3-028,,EL PADRO DR & ORANGE WAY,,37.666079,-121.791308,,,,,,
3-029,,EL CAMINITO & ANDALUCIA ST,,37.668104,-121.791212,,,,,,
3-030,,WALL ST & CALIENTE AVE,,37.670507,-121.793267,,,,,,
3-031,,MURIETTA & STANLEY,,37.677084,-121.786956,,,,,,
3-032,,MURIETTA BLVD & FENTON ST,,37.675847,-121.78301,,,,,,
3-033,,FOURTH ST & COLLEGE AVE,,37.676357,-121.778179,,,,,,
3-034,,FOURTH &  P STREET,,37.677352,-121.774834,,,,,,
3-035,,FOURTH ST & M ST,,37.678453,-121.77118,,,,,,
3-036,,FOURTH ST & HOLMES,,37.676367,-121.778351,,,,,,
3-037,,MURIETTA BLVD & FENTON ST,,37.675972,-121.782987,,,,,,
3-038,,GRANADA HIGH SCHOOL,,37.674661,-121.789869,,,,,,
3-039,,GRANADA HIGH SCHOOL,,37.674661,-121.789892,,,,,,
3-041,,WALL ST & EL CAMINITO,,37.670249,-121.793805,,,,,,
3-042,,EL CAMINITO & ENCINO DR,,37.669044,-121.793007,,,,,,
3-043,,EL CAMINITO & ANDALUCIA ST,,37.667934,-121.7908,,,,,,
3-044,,EL PADRO & ONTARIO DR,,37.665651,-121.791606,,,,,,
3-045,,MENDENHALL MIDDLE SCHOOL,,37.663975,-121.792297,,,,,,
3-046,,CONCANNON BLVD & PULSAR AVE,,37.660697,-121.790004,,,,,,
3-047,,CONCANNON BLVD & VEGA RD,,37.660743,-121.784911,,,,,,
3-048,,CONCANNON BLVD & BARCELONA ST,,37.660748,-121.781844,,,,,,
3-049,,HOLMES & CONCANNON,,37.661397,-121.780184,,,,,,
3-050,,HOLMES ST & VANCOUVER WAY,,37.665831,-121.780207,,,,,,
3-051,,HOLMES ST & ANZA WAY,,37.671025,-121.780344,,,,,,
3-052,,HOLMES ST & MOCHO ST,,37.673906,-121.780096,,,,,,
3-054,,SOUTH P ST & RAILROAD AVE,,37.680611,-121.776772,,,,,,
3-056,,MURRIETA & STANLEY,,37.677012,-121.786682,,,,,,
3-058,,CONCANNON BLVD & EVANS ST,,37.660797,-121.77896,,,,,,
3-059,,CONCANNON BLVD & EPSON ST,,37.660836,-121.774966,,,,,,
3-060,,CONCANNON BLVD & STERLING PL.,,37.660864,-121.770206,,,,,,
3-061,,ARROYO RD & PYRAMID ST,,37.655855,-121.768204,,,,,,
3-062,,SUPERIOR & ARROYO,,37.653968,-121.770715,,,,,,
3-063,,SUPERIOR DR & PILLSBURY CT,,37.65424,-121.773472,,,,,,
3-064,,LEXINGTON WY & SUPERIOR DR,,37.652529,-121.775216,,,,,,
3-065,,LEXINGTON WY & HAMPTON RD,,37.653195,-121.779299,,,,,,
3-066,,LEXINGTON & HOLMES,,37.651789,-121.781831,,,,,,
3-067,,LEXINGTON & HOLMES,,37.652243,-121.780938,,,,,,
3-068,,LEXINGTON WY & WINDSOR WY,,37.652762,-121.776176,,,,,,
3-069,,SUPEROIR DR & CRATER RD,,37.654026,-121.773873,,,,,,
3-070,,SUPERIOR & ARROYO,,37.653932,-121.770624,,,,,,
3-071,,ARROYO RD & LATOUR RD,,37.658238,-121.768015,,,,,,
3-072,,ARROYO RD & CONCANNON BLVD,,37.660647,-121.767986,,,,,,
3-073,,CONCANNON BLVD & ARROYO RD,,37.661032,-121.768821,,,,,,
3-074,,CONCANNON BLVD & EPSON ST,,37.660979,-121.775344,,,,,,
3-075,,CONCANNON BLVD & EVANS ST,,37.661012,-121.779418,,,,,,
3-076,,STANLEY BLVD & MURRIETA BLVD,,37.678191,-121.787171,,,,,,
4-005,,MAPLE ST & SECOND ST,,37.682306,-121.764691,,,,,,
4-006,,LIVERMORE HIGH SCHOOL,,37.679927,-121.761023,,,,,,
4-007,,EAST AVE & DOLORES ST,,37.679928,-121.75617,,,,,,
4-008,,EAST & HILLCREST,,37.679864,-121.750103,,,,,,
4-009,,EAST AVE & XAVIER WY,,37.679849,-121.746795,,,,,,
4-010,,EAST AVE & ALMOND AVE,,37.679845,-121.739354,,,,,,
4-011,,EAST & MINES,,37.679828,-121.734753,,,,,,
4-012,,EAST AVE & MINES RD,,37.679816,-121.732841,,,,,,
4-013,,EAST AVE & CHARLOTTE WY,,37.679783,-121.725206,,,,,,
4-014,,EAST AVE & RESEARCH DR,,37.679766,-121.72088,,,,,,
4-015,,EAST AVE &  MADISON AVE,,37.679904,-121.742536,,,,,,
4-016,,RAILROAD AVE & MAPLE SIGNATURE STOP,,37.684042,-121.767663,,,,,,
4-017,,RAILROAD & FIRST,,37.683908,-121.76764,,,,,,
4-022,,EAST AVE & SUSAN LN,,37.679816,-121.719162,,,,,,
4-023,,EAST AVE & CHARLOTTE WY,,37.679926,-121.725217,,,,,,
4-024,,EAST AVE & MINES RD,,37.679947,-121.731753,,,,,,
4-025,,EAST & MINES,,37.679972,-121.735325,,,,,,
4-026,,EAST AVE & ROBERT LIVERMORE PARK,,37.679919,-121.740659,,,,,,
4-027,,EAST AVE & HILLCREST AVE,,37.679979,-121.74945,,,,,,
4-028,,EAST AVE MIDDLE SCHOOL,,37.679939,-121.752129,,,,,,
4-029,,EAST AVE & DOLORES ST,,37.679947,-121.756948,,,,,,
4-031,,FOURTH ST & MAPLE ST,,37.681395,-121.764259,,,,,,
4-032,,FOURTH ST  & J ST,,37.679376,-121.768156,,,,,,
4-033,,FOURTH ST & K ST,,37.67918,-121.768717,,,,,,
4-040,,VASCO RD & EAST AVE,,37.680458,-121.718542,,,,,,
4-041,,VASCO RD & MESQUITE WY,,37.684874,-121.718482,,,,,,
4-042,,VASCO RD & WESTGATE,,37.689719,-121.718444,,,,,,
4-043,,VASCO RD & PATTERSON PASS RD,,37.693717,-121.718454,,,,,,
4-044,,VASCO & BRISA  ACE STATION,,37.700043,-121.718456,,,,,,
4-048,,MAPLE ST & FOURTH ST,,37.682029,-121.764211,,,,,,
4-053,,PACIFIC AVE & SOUTH LIVERMORE AVE,,37.676175,-121.758206,,,,,,
4-054,,PACIFIC CIVIC CTR,,37.676681,-121.756991,,,,,,
4-055,,DOLORES ST & CARRIGAN CMN,,37.678243,-121.757055,,,,,,
4-056,,VASCO RD & PATTERSON PASS RD,,37.693512,-121.718649,,,,,,
4-057,,VASCO RD & DAPHNE DR,,37.689033,-121.718652,,,,,,
4-058,,VASCO RD & EMILY WY,,37.683393,-121.718659,,,,,,
4-059,,MINES RD & EAST AVE,,37.680744,-121.733067,,,,,,
4-060,,MINES RD & DANA CIR,,37.681825,-121.733568,,,,,,
4-061,,MINES RD & PATTERSON PASS RD,,37.689057,-121.741079,,,,,,
4-062,,MINES RD & FIRST ST,,37.694036,-121.74664,,,,,,
4-063,,MINES RD & PATTERSON PASS RD,,37.688824,-121.740942,,,,,,
4-064,,MINES RD & DANA CIR,,37.6848,-121.735803,,,,,,
4-065,,MINES RD & EAST AVE,,37.681557,-121.73366,,,,,,
4-066,,MINES RD & CHARLOTTE WY,,37.687383,-121.738165,,,,,,
4-090,,CIVIC CENTER & LIBRARY,,37.673661,-121.75439,,,,,,
4-100,,EAST & VASCO LLNL,,37.679537,-121.717652,,,,,,
4-401,,PATTERSON & ARLENE,,37.69392,-121.722162,,,,,,
4-402,,ARLENE WY & NINA WY,,37.691243,-121.721782,,,,,,
4-403,,FELICIA AVE & SHELLEY ST,,37.691266,-121.724712,,,,,,
4-404,,SHELLEY ST & CELESTE AVE,,37.693515,-121.725014,,,,,,
4-405,,BIANCA WY & RACHELLE ST,,37.694775,-121.725869,,,,,,
4-406,,BIANCA WY & CELESTE AVE,,37.694475,-121.727782,,,,,,
4-407,,BIANCA WY & DESIREE AVE,,37.694157,-121.729237,,,,,,
4-408,,KIRSTEN WY & JOYCE ST,,37.693144,-121.731828,,,,,,
4-409,,JOYCE & THERESA,,37.69153,-121.732153,,,,,,
4-410,,THERESA WY & HAZEL ST,,37.691492,-121.731123,,,,,,
4-411,,THERESA WY & DEBRA ST,,37.691383,-121.730001,,,,,,
4-412,,THERESA WY & CARLA ST,,37.690819,-121.72895,,,,,,
4-413,,THERESA WY & CARLA ST,,37.688346,-121.728236,,,,,,
4-414,,THERESA WY & DEBRA ST,,37.687498,-121.728113,,,,,,
4-415,,HAZEL ST & KATRINA ST,,37.686256,-121.726903,,,,,,
4-416,,KATRINA ST & CHARLOTTE WY,,37.685747,-121.726882,,,,,,
4-417,,CHARLOTTE WY & ARLENE WY,,37.685193,-121.726334,,,,,,
4-418,,CHARLOTTE WY & DRAINAGE DITCH,,37.683995,-121.725113,,,,,,
4-419,,KATHY WY & BIG TREES PARK,,37.683614,-121.726408,,,,,,
4-420,,KATHY WY & LILIAN ST,,37.682464,-121.731975,,,,,,
4-421,,LUCILLE ST & LILLIAN ST,,37.683936,-121.732096,,,,,,
4-422,,CHARLOTTE & LUCILLE,,37.687211,-121.732155,,,,,,
4-423,,CHARLOTTE WY & URSLA ST,,37.688097,-121.733343,,,,,,
4-424,,CHARLOTTE WY & PAULA CT,,37.688006,-121.737235,,,,,,
4-425,,CHARLOTTE WY & PAULA CT,,37.68805,-121.737018,,,,,,
4-426,,CHARLOTTE WY & URSLA ST,,37.68807,-121.733377,,,,,,
4-427,,CHARLOTTE & LUCILLE,,37.687193,-121.732189,,,,,,
4-428,,LUCILLE ST & LILLIAN ST,,37.683963,-121.732153,,,,,,
4-429,,KATHY WY & LILIAN ST,,37.682437,-121.731757,,,,,,
4-430,,KATHY WY & MARTHA ST,,37.682842,-121.729089,,,,,,
4-431,,KATHY WY & SANDRA WY,,37.683595,-121.72627,,,,,,
4-432,,CHARLOTTE WY & ARLENE WY,,37.684969,-121.725969,,,,,,
4-433,,KATRINA ST & CHARLOTTE WY,,37.685765,-121.726825,,,,,,
4-434,,THERESA WY & DEBRA ST,,37.68757,-121.728101,,,,,,
4-435,,THERESA WY & CARLA ST,,37.688667,-121.728235,,,,,,
4-436,,THERESA WY & CARLA ST,,37.691105,-121.729269,,,,,,
4-437,,THERESA WY & DEBRA ST,,37.691419,-121.730058,,,,,,
4-438,,JOYCE & THERESA,,37.69152,-121.731913,,,,,,
4-439,,KIRSTEN WY & JOYCE ST,,37.693126,-121.731839,,,,,,
4-440,,BIANCA WY & LENORE AVE,,37.693927,-121.730406,,,,,,
4-441,,BIANCA WY & DESIREE AVE,,37.694103,-121.729443,,,,,,
4-442,,BIANCA WY & CELESTE AVE,,37.694475,-121.727645,,,,,,
4-443,,BIANCA WY & RACHELLE ST,,37.694757,-121.725801,,,,,,
4-444,,SHELLEY ST  & CELESTE AVE,,37.693274,-121.725061,,,,,,
4-445,,SHELLEY  ST & LENORE AVE,,37.691722,-121.725066,,,,,,
4-446,,NINA WY & FELICIA AVE,,37.690753,-121.72215,,,,,,
4-447,,ARLENE WY & MARY LOU WY,,37.693126,-121.722325,,,,,,
4-448,,PATTERSON & ARLENE,,37.69466,-121.721679,,,,,,
5-001,,REGIONAL ST & DUBLIN BLVD,,37.703327,-121.933884,,,,,,
5-003,,AMADOR VALLEY BLVD & REGIONAL ST,,37.7062,-121.934513,,,,,,
5-004,,AMADOR VALLEY BLVD & DONOHUE DR,,37.708502,-121.931959,,,,,,
5-005,,AMADOR & VILLAGE,,37.710571,-121.927046,,,,,,
5-006,,VILLAGE PKWY & TAMARACK  DR,,37.715246,-121.926872,,,,,,
5-007,,DUBLIN HIGH SCHOOL,,37.718949,-121.926515,,,,,,
5-008,,VILLAGE PKWY & DAVONA DR,,37.720939,-121.926388,,,,,,
5-009,,DAVONA DR & BRIARWOOD LN,,37.721582,-121.928805,,,,,,
5-010,,DAVONA DR & LUCANIA ST,,37.72144,-121.931611,,,,,,
5-011,,DAVONA DR & WICKLOW LN,,37.720967,-121.934909,,,,,,
5-012,,DAVONA DR & WICKLOW LN,,37.722636,-121.936341,,,,,,
5-016,,ALCOSTA BLVD & FIRCREST LN,,37.73145,-121.928068,,,,,,
5-017,,ALCOSTA BLVD & STAGECOACH RD,,37.732663,-121.924562,,,,,,
5-018,,STAGECOACH & AMADOR LAKE,,37.726612,-121.921804,,,,,,
5-019,,STAGECOACH RD & JADE CIR,,37.724104,-121.919251,,,,,,
5-022,,STAGECOACH RD & TURQUOISE ST,,37.720722,-121.91852,,,,,,
5-023,,AMADOR VALLEY BLVD & STAGECOACH RD,,37.717321,-121.914399,,,,,,
5-026,,WILDWOOD RD & COTTONWOOD CIR,,37.721006,-121.913229,,,,,,
5-027,,WILDWOOD RD & PARKWOOD CIR,,37.722219,-121.911922,,,,,,
5-029,,WILDWOOD & DOUGHERTY,,37.723726,-121.910673,,,,,,
5-031,,DOUGHERTY RD & MARIPOSA CIR,,37.715482,-121.910323,,,,,,
5-032,,DOUGHERTY RD & NORTH APARTMENTS,,37.711663,-121.910303,,,,,,
5-033,,DOUGHERTY RD & SIERRA LN,,37.7068,-121.910317,,,,,,
5-034,,DOUGHERTY RD & DUBLIN BLVD,,37.705435,-121.909906,,,,,,
5-035,,DOUGHERTY RD & FIFTH ST,,37.711127,-121.910303,,,,,,
5-036,,WILDWOOD &  DOUGHERTY,,37.723673,-121.911108,,,,,,
5-037,,WILDWOOD RD & PARKWOOD CIR,,37.722139,-121.912117,,,,,,
5-038,,DOUGHERTY RD  & HOUSTON  PL,,37.708129,-121.910259,,,,,,
5-039,,WILDWOOD RD & COTTONWOOD CIR,,37.720756,-121.913424,,,,,,
5-040,,AMADOR VALLEY BLVD & WILDWOOD RD,,37.718267,-121.913036,,,,,,
5-041,,AMADOR VALLEY BLVD & STAGECOACH RD,,37.717393,-121.914571,,,,,,
5-046,,STAGECOACH RD & TOPAZ CIR,,37.720374,-121.918463,,,,,,
5-047,,STAGECOACH RD & JADE CIR,,37.72381,-121.919023,,,,,,
5-050,,STAGECOACH & AMADOR LAKES,,37.727264,-121.922148,,,,,,
5-051,,STAGECOACH RD & ALCOSTA BLVD,,37.732939,-121.92431,,,,,,
5-052,,VILLAGE & ALCOSTA,,37.731637,-121.928056,,,,,,
5-056,,DAVONA DR & WICKLOW LN,,37.722913,-121.936501,,,,,,
5-057,,DAVONA DR & WICKLOW LN,,37.721057,-121.935139,,,,,,
5-059,,DAVONA DR & LUCIANA ST,,37.721413,-121.931473,,,,,,
5-060,,DUBLIN HIGH SCHOOL AT VILLAGE PARKWAY &  DAVONA,,37.72118,-121.926583,,,,,,
5-061,,DUBLIN HIGH SCHOOL,,37.718316,-121.92679,,,,,,
5-062,,VILLAGE PKWY & TAMARACK DR,,37.7143,-121.927159,,,,,,
5-063,,AMADOR & VILLAGE,,37.709911,-121.928031,,,,,,
5-064,,AMADOR VALLEY PKWY & DONOHUE DR,,37.708671,-121.931959,,,,,,
5-065,,AMADOR VALLEY BLVD & REGIONAL ST,,37.706361,-121.934605,,,,,,
5-067,,REGIONAL ST & DUBLIN BLVD,,37.70347,-121.93401,,,,,,
5-068,,DUBLIN & DONLON,,37.701401,-121.938442,,,,,,
5-069,,SILVERGATE DR & BETLEN DR,,37.700991,-121.944854,,,,,,
5-070,,SILVERGATE DR & HANSEN DR,,37.703918,-121.94585,,,,,,
5-072,,SILVERGATE DR & ROLLING HILLS CIR,,37.706657,-121.946491,,,,,,
5-073,,SILVERGATE DR & AMARILLO RD,,37.709209,-121.944349,,,,,,
5-074,,PEPPERTREE RD & SILVERGATE DR,,37.709726,-121.941761,,,,,,
5-075,,PEPPERTREE RD & SHANNON AVE,,37.713375,-121.942917,,,,,,
5-076,,SHANNON PARK,,37.713777,-121.941084,,,,,,
5-078,,SHANNON PARK,,37.713803,-121.941027,,,,,,
5-079,,PEPPERTREE RD & JUAREZ RD,,37.712849,-121.942905,,,,,,
5-080,,PEPPERTREE RD & SILVERGATE DR,,37.709744,-121.941795,,,,,,
5-081,,SILVERGATE DR & AMARILLO RD,,37.709405,-121.944063,,,,,,
5-082,,SILVERGATE DR & ROLLING HILLS DR,,37.70713,-121.946628,,,,,,
5-083,,SILVERGATE DR & HANSEN DR,,37.703918,-121.946022,,,,,,
5-084,,SILVERGATE DR & BETLEN DR,,37.701259,-121.945221,,,,,,
5-085,,DUBLIN BLVD & REGIONAL ST,,37.702925,-121.933003,,,,,,
5-086,,DUBLIN BLVD & GOLDEN GATE,,37.704102,-121.929384,,,,,,
5-087,,DUBLIN BLVD & VILLAGE PKWY,,37.705678,-121.921622,,,,,,
5-088,,DUBLIN BLVD & CIVIC PLAZA,,37.704089,-121.914853,,,,,,
5-089,,DUBLIN BLVD & DUBLIN CT,,37.703678,-121.912541,,,,,,
5-090,,DUBLIN BLVD & DUBLIN CT,,37.703919,-121.911808,,,,,,
5-091,,DUBLIN BLVD & SIERRA CT,,37.70467,-121.91672,,,,,,
5-092,,DUBLIN BLVD & GOLDEN GATE,,37.704022,-121.930254,,,,,,
5-093,,DUBLIN BLVD & VILLAGE PKWY,,37.705707,-121.924872,,,,,,
5-095,,DUBLIN &  DONLON,,37.701177,-121.93858,,,,,,
5-096,,DUBLIN BLVD & CLARK AVE,,37.705653,-121.920807,,,,,,
5-097,,VILLAGE PKWY & WINEBERRY  WY,,37.724972,-121.92838,,,,,,
5-098,,VILLAGE & ALCOSTA,,37.728524,-121.931471,,,,,,
5-099,,VILLAGE PKWY & TRIANA WY,,37.728051,-121.931276,,,,,,
5-100,,VILLAGE PKWY & WINEBERRY WY,,37.724713,-121.928403,,,,,,
5-102,,DUBLIN BLVD & SCARLETT CT,,37.705532,-121.908165,,,,,,
5-104,,AMADOR VALLEY BLVD & PENN DR,,37.714254,-121.920058,,,,,,
5-105,,ALCOSTA BLVD & VILLAGE PKWY,,37.729479,-121.931803,,,,,,
5-106,,AMADOR VALLEY BLVD & PENN DR,,37.714075,-121.920127,,,,,,
5-109,,DOUGHERTY RD & MARIPOSA LN,,37.715312,-121.910255,,,,,,
5-401,,VOMAC RD & HOLLANDA LN,,37.715088,-121.937282,,,,,,
5-402,,VOMAC RD & DEERVALE RD,,37.717345,-121.938575,,,,,,
5-403,,VOMAC RD & SAN RAMON RD,,37.717123,-121.941152,,,,,,
5-404,,VOMAC RD & PEPPERTREE RD,,37.716008,-121.942424,,,,,,
5-405,,SOUTHWICK DR & SOUTHWICK CT,,37.719648,-121.945653,,,,,,
5-406,,ALCOSTA & SAN RAMON,,37.722566,-121.943843,,,,,,
5-407,,ALCOSTA BLVD & SAN RAMON RD,,37.723021,-121.941747,,,,,,
5-408,,AMADOR VALLEY BLVD & VILLAGE PKWY,,37.710445,-121.925843,,,,,,
5-410,,WELLS MIDDLE SCHOOL,,37.710113,-121.918881,,,,,,
5-411,,ALCOSTA & SAN RAMON,,37.722164,-121.944014,,,,,,
5-412,,SOUTHWICK DR & BECKETT WY,,37.719149,-121.946031,,,,,,
5-413,,VOMAC RD & PEPPERTREE RD,,37.716168,-121.942802,,,,,,
5-414,,VOMAC RD & SAN RAMON RD,,37.717149,-121.941072,,,,,,
5-415,,VOMAC RD & COUNTESS ST,,37.717372,-121.939698,,,,,,
5-416,,VOMAC RD & HOLLANDA LN,,37.715284,-121.937385,,,,,,
5-500,,W. DUBLIN & PLEASANTON BART,,37.70064,-121.927187,,,,,,
6-001,,HACIENDA DR & HAVEN PL,,37.706941,-121.887885,,,,,,
6-002,,HACIENDA DR & SUMMER GLEN DR,,37.710813,-121.88787,,,,,,
6-003,,HACIENDA DR & GLEASON DR,,37.713597,-121.887844,,,,,,
6-004,,MADIGAN AVE & BRODER BLVD,,37.715807,-121.88341,,,,,,
6-005,,SANTA RITA JAIL,,37.715935,-121.887785,,,,,,
6-006,,GLEASON DR & ARNOLD RD,,37.713849,-121.891738,,,,,,
6-007,,GLEASON DR & HACIENDA DR,,37.713812,-121.889493,,,,,,
6-008,,HACIENDA DR & CENTRAL PKWY,,37.709279,-121.888112,,,,,,
6-009,,DUBLIN BLVD & TASSAJARA RD,,37.7057,-121.873424,,,,,,
6-010,,DUBLIN BLVD & MYRTLE DR,,37.706206,-121.882286,,,,,,
6-011,,DUBLIN BLVD & HYBERNIA,,37.706306,-121.885618,,,,,,
6-012,,DUBLIN BLVD & HIBERNIA DR,,37.706091,-121.884599,,,,,,
6-013,,DUBLIN BLVD & MYRTLE DR,,37.705902,-121.881519,,,,,,
6-014,,DUBLIN BLVD & JOHN MONEGO CT,,37.705524,-121.87631,,,,,,
6-015,,DUBLIN BLVD & HACIENDA DR,,37.706128,-121.886981,,,,,,
6-016,,DUBLIN BLVD & HACIENDA DR,,37.70637,-121.888721,,,,,,
6-017,,CENTRAL PKWY & HIBERNIA DR,,37.708572,-121.885593,,,,,,
6-018,,CENTRAL PKWY & KILLIAN ST,,37.708585,-121.877898,,,,,,
6-019,,CENTRAL& TASSAJARA,,37.709387,-121.875217,,,,,,
6-021,,CENTRAL PKWY & SYBASE DR,,37.708897,-121.890769,,,,,,
6-023,,CENTRAL & TASSAJARA,,37.709698,-121.874553,,,,,,
6-024,,CENTRAL PKWY & ASPEN ST,,37.708731,-121.882845,,,,,,
6-026,,CENTRAL &  CHANCERY,,37.709434,-121.865999,,,,,,
6-027,,CENTRAL PWKY & KEEGAN ST,,37.708421,-121.860355,,,,,,
6-028,,DUBLIN & KEEGAN,,37.704736,-121.86036,,,,,,
6-029,,DUBLIN &  BRANNIGAN,,37.705257,-121.865271,,,,,,
6-033,,KEEGAN ST & FINNIAN WY,,37.707145,-121.860116,,,,,,
6-038,,CENTRAL PKWY &  HACIENDA DR,,37.708734,-121.887585,,,,,,
6-039,,DUBLIN BLVD & LOCKHART ST,,37.70476,-121.85744,,,,,,
6-040,,DUBLIN BLVD & GRAFTON ST,,37.705097,-121.865409,,,,,,
6-041,,DUBLIN & KEEGAN,,37.704548,-121.859765,,,,,,
6-042,,FALLON & ANTONE,,37.715403,-121.854608,,,,,,
6-045,,FALLON & ANTONE,,37.715411,-121.854253,,,,,,
6-047,,DUBLIN RANCH & SHADOW  HILL,,37.719636,-121.870716,,,,,,
6-049,,DUBLIN BLVD & FALLON,,37.706674,-121.852055,,,,,,
6-050,,DUBLIN BLVD & FALLON,,37.706478,-121.85201,,,,,,
6-051,,FALLON RD & ANTONE WY,,37.719172,-121.859184,,,,,,
6-052,,FALLON RD & SIGNAL HILL DR,,37.726488,-121.858143,,,,,,
6-053,,FALLON & SILVERA RANCH,,37.732195,-121.866051,,,,,,
6-054,,FALLON RD & SIGNAL HILL DR,,37.725747,-121.858465,,,,,,
6-055,,FALLON RD & ANTONE WY,,37.719297,-121.859436,,,,,,
6-056,,FALLON RD & GLEASON DR,,37.716136,-121.856451,,,,,,
6-057,,2605 CENTRAL PKWY,,37.709952,-121.855349,,,,,,
6-058,,GLEASON DR & MADDEN WY,,37.714647,-121.858423,,,,,,
6-059,,FALLON RD & SILVERA RANCH,,37.732454,-121.866154,,,,,,
6-060,,GLEASON DR & GRAFTON ST,,37.713644,-121.864391,,,,,,
6-061,,DUBLIN RANCH DR & SPRINGVALE DR,,37.716718,-121.870605,,,,,,
6-062,,POSITANO & VALENTANO LEAVE,,37.719463,-121.845108,,,,,,
6-063,,POSITANO & VALENTANO,,37.719588,-121.845325,,,,,,
6-067,,POSITANO & VALENTANO ARRIVE,,37.715613,-121.850657,,,,,,
6-093,,DUBLIN & ARNOLD EB,,37.706149,-121.891779,,,,,,
6-118,,FALLON MIDDLE SCHOOL,,37.714903,-121.865557,,,,,,
6-406,,TASSAJARA RD & BRIDGESTONE CIR,,37.723687,-121.87149,,,,,,
6-407,,TASSAJARA RD & QUARRY LANE SCHOOL,,37.727104,-121.871326,,,,,,
6-408,,TASSAJARA & SILVERA RANCH DR,,37.730432,-121.871047,,,,,,
6-411,,TASSAJARA RD & DUBLIN RANCH DR,,37.718146,-121.871703,,,,,,
6-412,,DUBLIN RANCH DR & CEDAR CREST TER,,37.721106,-121.867909,,,,,,
6-413,,DUBLIN RANCH DR & GROVELAND LN,,37.720158,-121.86539,,,,,,
7-000,,STONERIDGE MALL,,37.696393,-121.930418,,,,,,
7-001,,5526   SPRINGDALE AVE,,37.691083,-121.925645,,,,,,
7-003,,FOOTHILL RD & CANYON WY,,37.694681,-121.933544,,,,,,
7-004,,STONERIDGE MALL RD & EMBARCADERO CT,,37.696205,-121.925643,,,,,,
7-005,,STONERIDGE DR & FOOTHILL  RD,,37.689157,-121.929275,,,,,,
7-006,,FOOTHILL RD & DUBLIN CANYON RD,,37.69419,-121.933544,,,,,,
7-007,,7799 STONERIDGE DR,,37.689388,-121.928153,,,,,,
7-008,,SPRINDALE AVE & STONERIDGE MALL  RD,,37.691877,-121.925931,,,,,,
7-009,,JOHNSON & COMMERCE,,37.696292,-121.919701,,,,,,
7-010,,JOHNSON DR & HILTON,,37.701146,-121.918347,,,,,,
7-011,,JOHNSON DR & OWENS DR,,37.696983,-121.906591,,,,,,
7-012,,JOHNSON DR & FRANKLIN DR,,37.695422,-121.906123,,,,,,
7-013,,JOHNSON DR & CLOROX WAY,,37.69411,-121.905986,,,,,,
7-014,,JOHNSON DR & CLOROX CORPORATION,,37.692299,-121.906503,,,,,,
7-015,,7363   JOHNSON DR,,37.692023,-121.908644,,,,,,
7-016,,STONERIDGE & HOPYARD,,37.690854,-121.908553,,,,,,
7-017,,STONERIDGE & HOPYARD,,37.691584,-121.904523,,,,,,
7-018,,JOHNSON DR & FRANKLIN DR,,37.691898,-121.908976,,,,,,
7-019,,JOHNSON DR & BRADLEY DR,,37.692272,-121.906491,,,,,,
7-020,,JOHNSON DR & CLOROX WAY,,37.694137,-121.905952,,,,,,
7-021,,JOHNSON DR & FRANKLIN DR,,37.695716,-121.906077,,,,,,
7-022,,JOHNSON DR & OWENS LOOP,,37.697992,-121.907106,,,,,,
7-023,,JOHNSON DR & OWENS DR,,37.696841,-121.906431,,,,,,
7-024,,JOHNSON DR & HILTON HOTEL,,37.699603,-121.920512,,,,,,
7-025,,JOHNSON & COMMERCE,,37.696266,-121.919724,,,,,,
7-026,,JOHNSON DR & CLOROX,,37.693169,-121.918512,,,,,,
7-028,,JOHNSON DR & FEDEX,,37.691544,-121.916223,,,,,,
7-029,,JOHNSON DR & CLOROX,,37.693151,-121.918478,,,,,,
7-032,,STONERIDGE & MC WILLIAMS,,37.692573,-121.92355,,,,,,
7-033,,MUIRWOOD DR & LAS POSITAS BLVD,,37.677553,-121.916403,,,,,,
7-034,,MUIRWOOD PARK,,37.682818,-121.917533,,,,,,
7-035,,SPRINGDALE DR & CHESTNUT WY,,37.689753,-121.924833,,,,,,
7-036,,STONERIDGE MALL RD & SHERATON HOTEL,,37.698302,-121.928665,,,,,,
7-038,,STONERIDGE DR & FRANKLIN DR,,37.690685,-121.910202,,,,,,
7-043,,VALLEY TRAILS DR & GETTYSBURG CT,,37.677639,-121.907635,,,,,,
7-117,,E. DUBLIN & PLEASANTON BART,,37.700932,-121.896753,,,,,,
7-123,,E. DUBLIN & PLEASANTON BART,,37.702923,-121.899419,,,,,,
7-151,,FOOTHILL HIGH SCHOOL,,37.671032,-121.919748,,,,,,
7-173,,JORGENSEN & LYLEWOOD,,37.657867,-121.908197,,,,,,
7-175,,LYLEWOOD DR & REGENCY DR,,37.657001,-121.90647,,,,,,
7-177,,REGENCY DR & LYLEWOOD DR,,37.661355,-121.907646,,,,,,
7-179,,JORGENSEN & LYLEWOOD,,37.657582,-121.909697,,,,,,
7-180,,LIVERMORE TRANSIT CENTER,,37.685146,-121.766573,,,,,,
7-185,,LIVERMORE TRANSIT CENTER,,37.685191,-121.766572,,,,,,
7-186,,REGENCY DR & TUDOR CT,,37.659865,-121.907395,,,,,,
7-187,,MUIRWOOD DR & PALM CT,,37.676179,-121.915488,,,,,,
7-195,,MUIRWOOD DR & ARROWWOOD CT,,37.670005,-121.915606,,,,,,
7-206,,SPRINGDALE AVE & CHESTNUT WY,,37.688915,-121.92449,,,,,,
7-207,,SPRINGDALE AVE & GLENBROOK CT,,37.687085,-121.922579,,,,,,
7-208,,MUIRWOOD PARK,,37.684702,-121.919478,,,,,,
7-209,,MUIRWOOD DR & SANDALWOOD DR,,37.680266,-121.916481,,,,,,
7-210,,MUIRWOOD DR & LAS POSITAS BLVD,,37.677384,-121.916357,,,,,,
7-212,,LAS POSITAS & DORMAN,,37.680744,-121.905824,,,,,,
7-215,,LAS POSITAS & DORMAN,,37.68177,-121.904988,,,,,,
7-216,,LAS POSITAS BLVD & MUIRWOOD DR,,37.677295,-121.91614,,,,,,
7-229,,STONERIDGE DR & LAS POSITAS BLVD,,37.688933,-121.885544,,,,,,
7-230,,STONERIDGE & LAS POSITAS,,37.688042,-121.886208,,,,,,
7-270,,MUIRWOOD DR & LEMONWOOD WY,,37.671137,-121.913614,,,,,,
7-296,,MUIRWOOD DR & FOOTHILL RD,,37.669452,-121.918536,,,,,,
7-298,,MUIRWOOD DR & PECAN CT,,37.674644,-121.914195,,,,,,
7-299,,MUIRWOOD DR & SUNDROP CT,,37.673109,-121.913544,,,,,,
7-401,,MUIRWOOD DR & OAK HILL PARK,,37.674599,-121.914012,,,,,,
7-405,,MUIRWOOD DR & EASTWOOD WY,,37.670646,-121.913763,,,,,,
7-406,,MUIRWOOD & FOOTHILL,,37.669434,-121.918525,,,,,,
7-410,,REGENCY DR & MILLEFORD CT,,37.664077,-121.908891,,,,,,
7-411,,REGENCY DR & BELVEDERE CT,,37.661357,-121.911674,,,,,,
7-412,,VALLEY TRAILS DR & CARLSBAD WY,,37.678441,-121.903433,,,,,,
7-413,,VALLEY TRAILS DR & PLATT CT,,37.677657,-121.907749,,,,,,
7-414,,VALLEY TRAILS PARK,,37.674696,-121.910063,,,,,,
7-415,,VALLEY TRAILS DR & HOPYARD RD,,37.677288,-121.900527,,,,,,
7-416,,REGENCY DR & MEADOWLARK PARK,,37.664738,-121.909635,,,,,,
7-417,,VALLEY TRAILS DR & NATIONAL PARK  RD,,37.677155,-121.900721,,,,,,
7-418,,VALLEY TRAILS DR & KINGS CANYON CT,,37.674311,-121.906344,,,,,,
7-419,,VALLEY TRAILS PARK,,37.676436,-121.910142,,,,,,
7-420,,VALLEY TRAILS DR & NATIONAL PARK RD,,37.678485,-121.903227,,,,,,
7-500,,W.DUBLIN & PLEASANTON BART,,37.698008,-121.927257,,,,,,
8-001,,ROSEWOOD DR & ROSE PAVILLION,,37.698296,-121.875596,,,,,,
8-002,,ROSEWOOD DR & OLD SANTA RITA RD,,37.701073,-121.879429,,,,,,
8-003,,ROSEWOOD DR & WAL MART DR,,37.698962,-121.884801,,,,,,
8-004,,ROSEWOOD DR & OWENS DR,,37.69658,-121.885983,,,,,,
8-008,,OWENS DR & CHABOT DR,,37.699863,-121.901448,,,,,,
8-009,,OWENS DR & WILLOW RD,,37.699843,-121.897109,,,,,,
8-011,,OWENS DR & CHABOT DR,,37.700024,-121.901448,,,,,,
8-012,,CHABOT DR & GIBRALTAR DR,,37.696812,-121.901336,,,,,,
8-013,,4741 CHABOT DR,,37.695,-121.901326,,,,,,
8-014,,OWENS DR & HACIENDA DR,,37.697001,-121.888398,,,,,,
8-015,,OWENS DR & ROSEWOOD DR,,37.695465,-121.886316,,,,,,
8-016,,OWENS DR & LAS POSITAS BLVD,,37.691751,-121.882564,,,,,,
8-017,,LAS POSITAS BLVD & SANTA RITA RD,,37.691964,-121.880091,,,,,,
8-018,,SANTA RITA RD & STONERIDGE DR,,37.686689,-121.877486,,,,,,
8-019,,SANTA RITA RD & MOHR AVE,,37.681298,-121.875638,,,,,,
8-020,,SANTA RITA & VALLEY,,37.677416,-121.874269,,,,,,
8-021,,SANTA RITA & VALLEY,,37.675595,-121.87363,,,,,,
8-022,,SANTA RITA RD & NEVIS ST,,37.671508,-121.87273,,,,,,
8-023,,AMADOR VALLEY HIGH SCHOOL,,37.67025,-121.872892,,,,,,
8-024,,SANTA RITA RD & DEL VALLE PKWY,,37.667324,-121.873399,,,,,,
8-025,,PETERS AVE & DIVISION ST,,37.661767,-121.876793,,,,,,
8-026,,NEAL & FIRST,,37.65974,-121.873911,,,,,,
8-027,,FIRST & KOTTINGER NB,,37.662307,-121.870784,,,,,,
8-028,,STANLEY BLVD & CALIFORNIA AVE,,37.668966,-121.862295,,,,,,
8-029,,STANLEY BLVD & BERNAL AVE,,37.670336,-121.857383,,,,,,
8-030,,STANLEY BLVD & SHADOW CLIFFS,,37.671328,-121.848191,,,,,,
8-031,,STANLEY BLVD & SHADOW CLIFFS,,37.671515,-121.848145,,,,,,
8-032,,STANLEY BLVD & CALIFORNIA AVE,,37.668967,-121.862799,,,,,,
8-033,,FIRST ST & RAY ST,,37.662601,-121.870509,,,,,,
8-034,,NEAL & FIRST,,37.659713,-121.873945,,,,,,
8-035,,PETERS ST & ST MARY ST,,37.662588,-121.876414,,,,,,
8-036,,MAIN ST & VERVAIS AVE,,37.665512,-121.87371,,,,,,
8-037,,AMADOR VALLEY HIGH SCHOOL,,37.668653,-121.873134,,,,,,
8-038,,SANTA RITA RD & BLACK AVE,,37.672578,-121.872466,,,,,,
8-039,,SANTA RITA RD & FRANCISCO ST,,37.675292,-121.873367,,,,,,
8-040,,SANTA RITA & VALLEY,,37.676987,-121.873903,,,,,,
8-041,,SANTA RITA RD & MOHR AVE,,37.682378,-121.875797,,,,,,
8-042,,SANTA RITA RD & SUTTER GATE AVE,,37.685421,-121.876847,,,,,,
8-043,,SANTA RITA RD & STONERIDGE DR,,37.688625,-121.877851,,,,,,
8-044,,STANLEY BLVD & STANLEY BLVD,,37.666221,-121.866785,,,,,,
8-045,,LAS POSITAS BLVD & SANTA RITA RD,,37.692142,-121.879415,,,,,,
8-046,,OWENS & ANDREWS,,37.693331,-121.883753,,,,,,
8-048,,OWENS & ROSEWOOD,,37.696697,-121.887562,,,,,,
8-049,,OWENS & HACIENDA,,37.698394,-121.889885,,,,,,
8-051,,CALIFORNIA CENTER,,37.697998,-121.884126,,,,,,
8-052,,5057   HOPYARD RD,,37.695224,-121.90373,,,,,,
8-053,,4861   HOPYARD RD,,37.692324,-121.90376,,,,,,
8-054,,4393   HOPYARD RD,,37.687051,-121.903851,,,,,,
8-055,,LAS POSITAS & HOPYARD,,37.682465,-121.904014,,,,,,
8-056,,HOPYARD RD & VALLEY TRAILS DR,,37.677966,-121.90048,,,,,,
8-059,,HARVEST PARK MIDDLE SCHOOL,,37.6766,-121.881733,,,,,,
8-060,,SUNOL & MISSION,,37.652579,-121.880167,,,,,,
8-061,,CASE AVENUE,,37.652554,-121.88416,,,,,,
8-062,,CASE AVE  & BERNAL AVE,,37.6563,-121.88165,,,,,,
8-063,,7052   VALLEY AVE,,37.660512,-121.896946,,,,,,
8-064,,6917   VALLEY AVE,,37.663412,-121.897219,,,,,,
8-065,,6269   VALLEY AVE,,37.667293,-121.897685,,,,,,
8-066,,VALLEY AVE  & HANSEN DR,,37.670042,-121.898941,,,,,,
8-067,,HOPYARD RD & PARKSIDE DR,,37.677618,-121.899428,,,,,,
8-068,,LAS POSITAS & HOPYARD,,37.682429,-121.903739,,,,,,
8-069,,4837   HOPYARD RD,,37.690933,-121.903561,,,,,,
8-070,,HOPYARD RD & STONERIDGE DR,,37.692298,-121.903526,,,,,,
8-071,,HOPYARD RD & GIBRALTAR DR,,37.69683,-121.903477,,,,,,
8-072,,STONERIDGE & LAS POSITAS,,37.688336,-121.885853,,,,,,
8-074,,5753 LAS POSITAS BLVD,,37.686207,-121.891659,,,,,,
8-075,,LAS POSITAS BLVD & HACIENDA DR,,37.685396,-121.893675,,,,,,
8-078,,LAS POSITAS BLVD & TASSAJARA CREEK,,37.686991,-121.889632,,,,,,
8-081,,LAS POSITAS BLVD & HACIENDA DR,,37.684781,-121.895461,,,,,,
8-082,,LAS POSITAS BLVD & WILLOW RD,,37.683542,-121.899137,,,,,,
8-083,,LAS POSITAS BLVD & HOPYARD RD,,37.682009,-121.902629,,,,,,
8-084,,N. PASEO SANTA CRUZ & VALLEY AVE,,37.674477,-121.89856,,,,,,
8-085,,VALLEY AVE & VIA DE LOS CERROS,,37.670009,-121.899128,,,,,,
8-086,,VALLEY AVE & HANSEN DR,,37.669016,-121.898748,,,,,,
8-087,,VALLEY AVE & KOLL CENTER PKWY,,37.660681,-121.897187,,,,,,
8-088,,CASE AVE & BERNAL AVE,,37.656274,-121.881662,,,,,,
8-089,,CASE AVENUE,,37.652563,-121.884183,,,,,,
8-090,,SUNOL BLVD & MISSION DR,,37.653007,-121.879915,,,,,,
8-091,,FIRST & VINEYARD,,37.663081,-121.868059,,,,,,
8-093,,VINEYARD AVE & MAVIS DR,,37.662915,-121.861033,,,,,,
8-094,,BERNAL & PALOMINO,,37.661199,-121.857464,,,,,,
8-095,,KOTTINGER DR & BERNAL AVE,,37.656838,-121.859725,,,,,,
8-096,,KOTTINGER & BERNAL,,37.658311,-121.860478,,,,,,
8-097,,KOTTINGER DR & SHARAB CT,,37.658499,-121.861965,,,,,,
8-098,,KOTTINGER DR & ADAMS WY,,37.659313,-121.864162,,,,,,
8-099,,KOTTINGER DR & AMARAL CIR,,37.660314,-121.866529,,,,,,
8-100,,KOTTINGER & SECOND,,37.661592,-121.869617,,,,,,
8-101,,VALLEY AVE & SANTA RITA RD,,37.676738,-121.874681,,,,,,
8-104,,TAWNY PARK,,37.663284,-121.854028,,,,,,
8-105,,LAS POSITAS BLVD & HOPYARD RD,,37.681724,-121.90263,,,,,,
8-106,,LAS POSITAS BLVD & WILLOW RD,,37.683854,-121.897557,,,,,,
8-107,,LAS POSITAS BLVD & HACIENDA DR,,37.68511,-121.89379,,,,,,
8-108,,LAS POSITAS BLVD & STONERIDGE DR,,37.68904,-121.884536,,,,,,
8-109,,HACIENDA DR & OWENS DR,,37.697056,-121.890516,,,,,,
8-110,,HACIENDA DR & GIBRALTAR DR,,37.694854,-121.894514,,,,,,
8-111,,STONERIDGE & HACIENDA,,37.691445,-121.893761,,,,,,
8-114,,WILLOW & GIBRALTER,,37.685853,-121.898242,,,,,,
8-116,,STONERIDGE DR & CHABOT DR,,37.691279,-121.901237,,,,,,
8-117,,WILLOW RD & STONERIDGE DR,,37.691626,-121.898203,,,,,,
8-118,,WILLOW RD & GIBRALTAR DR,,37.696471,-121.898222,,,,,,
8-119,,WILLOW RD & OWENS DR,,37.698782,-121.898129,,,,,,
8-120,,WILLOW RD & S GIBRALTER DR,,37.686826,-121.898516,,,,,,
8-121,,WILLOW RD & OWENS DR,,37.699246,-121.898323,,,,,,
8-122,,WILLOW & GIBRALTAR,,37.696667,-121.898348,,,,,,
8-124,,STONERIDGE DR & WILLOW RD,,37.691537,-121.899508,,,,,,
8-126,,WILLOW RD & INGLEWOOD DR,,37.688601,-121.89848,,,,,,
8-127,,WILLOW RD & GIBRALTER DR,,37.695213,-121.898349,,,,,,
8-130,,STONERIDGE & HACIENDA,,37.692221,-121.891986,,,,,,
8-131,,HACIENDA DR & STONERIDGE DR,,37.692151,-121.894688,,,,,,
8-132,,HACIENDA DR & GIBRALTAR DR,,37.695995,-121.892864,,,,,,
8-134,,KAISER WY,,37.698315,-121.891717,,,,,,
8-135,,STONERIDGE DR & RIALTO WY,,37.691568,-121.888827,,,,,,
8-136,,STONERIDGE DR & GIBRALTAR DR,,37.692193,-121.891104,,,,,,
8-137,,STONERIDGE DR & COURTHOUSE,,37.691184,-121.888632,,,,,,
8-138,,CHABOT DR & PARK PLAZA,,37.693706,-121.90119,,,,,,
8-141,,STONERIDGE DR & HACIENDA DR,,37.691491,-121.896268,,,,,,
8-142,,FIRST ST & NEAL ST,,37.659383,-121.874014,,,,,,
8-143,,MADEIRA DR & SYLVANER DR,,37.660229,-121.850016,,,,,,
8-144,,CRELLIN & CRESTA BLANCA,,37.658494,-121.845052,,,,,,
8-146,,TAWNY PARK,,37.663258,-121.85436,,,,,,
8-148,,FIRST ST & NEAL ST,,37.659445,-121.873991,,,,,,
8-149,,WILLOW RD & LAS POSITAS BLVD,,37.684488,-121.898564,,,,,,
8-151,,CALIFORNIA CENTER,,37.698087,-121.884149,,,,,,
8-159,,VALLEY & HANSEN,,37.669632,-121.899354,,,,,,
8-161,,HANSEN DR & CALLE REYNOSO,,37.668607,-121.902662,,,,,,
8-162,,HANSEN DR & DEL PRADO PARK,,37.668395,-121.906943,,,,,,
8-168,,BERNAL AVE & PALOMINO DR,,37.660869,-121.857408,,,,,,
8-169,,BERNAL AVE & INDEPENDENCE ST,,37.652483,-121.869949,,,,,,
8-170,,VINYARD AVE & TOURIGA DR,,37.664817,-121.852023,,,,,,
8-171,,VINEYARD &  MONTEVINO,,37.664785,-121.846084,,,,,,
8-177,,PASEO SANTA CRUZ & VALLEY AVE,,37.666946,-121.89836,,,,,,
8-179,,PASEO SANTA CRUZ  & CALLE REYNOSO,,37.665663,-121.901966,,,,,,
8-180,,PASEO SANTA CRUZ & CALLE ALTAMIRA,,37.665236,-121.90508,,,,,,
8-181,,PASEO SANTA CRUZ  & CORTE MERCADO,,37.666485,-121.906544,,,,,,
8-182,,DEL PRADO PARK,,37.668832,-121.907263,,,,,,
8-184,,PASEO SANTA CRUZ  & PASEO CATALINA,,37.672419,-121.905853,,,,,,
8-186,,N. PASEO SANTA CRUZ & VALLEY AVE,,37.674397,-121.89911,,,,,,
8-187,,PASEO SANTA CRUZ  & PASEO SAN LEON,,37.673685,-121.90299,,,,,,
8-188,,PASEO SANTA CRUZ  & CORTE SANTA MARIA,,37.672071,-121.907307,,,,,,
8-189,,DEL PRADO PARK,,37.668788,-121.907252,,,,,,
8-191,,PASEO SANTA CRUZ  & CALLE REYNOSO,,37.66552,-121.902275,,,,,,
8-192,,PASEO SANTA CRUZ & CALLE ALTAMIRA,,37.6652,-121.904908,,,,,,
8-193,,PASEO SANTA CRUZ & VALLEY AVE,,37.666687,-121.899024,,,,,,
8-195,,PASEO SANTA CRUZ & CAMINO SEGURA,,37.674825,-121.899968,,,,,,
8-197,,LAS POSITAS BLVD & SANTA RITA RD,,37.692132,-121.87779,,,,,,
8-198,,PLEASANTON MIDDLE SCHOOL,,37.652965,-121.883851,,,,,,
8-199,,BERNAL & ANGELA,,37.653645,-121.862017,,,,,,
8-200,,FAIRGROUNDS EAST,,37.659049,-121.882483,,,,,,
8-203,,KOLL CENTER PARKWAY,,37.658541,-121.900198,,,,,,
8-204,,6700 KOLL CENTER PKWY,,37.660336,-121.902028,,,,,,
8-205,,6900 KOLL CENTER PKWY,,37.662173,-121.900699,,,,,,
8-206,,PARKSIDE DR & CHERYL CIR,,37.68016,-121.897789,,,,,,
8-207,,PARKSIDE DR & MARILYN CT,,37.681158,-121.895132,,,,,,
8-208,,PARKSIDE DR & CURTIS CIR,,37.681452,-121.894514,,,,,,
8-209,,PARKSIDE DR & MELANIE CIR,,37.682548,-121.892098,,,,,,
8-210,,PARKSIDE DR & ANASTACIA CT,,37.683351,-121.890517,,,,,,
8-211,,PARKSIDE DR & JOANNE CIR,,37.683645,-121.889716,,,,,,
8-212,,PARKSIDE & GLENDA,,37.684295,-121.887941,,,,,,
8-213,,CONCORD & BORDEAUX,,37.653879,-121.853492,,,,,,
8-214,,BORDEAUX ST & BORDEAUX  PL,,37.656055,-121.851235,,,,,,
8-215,,LAS POSITAS BLVD & BELLEZA LN,,37.687596,-121.886735,,,,,,
8-216,,STONERIDGE DR & WILLOW RD EB,,37.69126,-121.898032,,,,,,
8-218,,RUBY HILL &  ROMANO,,37.638252,-121.814663,,,,,,
8-219,,OLD BERNAL AVE & CITY HALL,,37.658485,-121.879966,,,,,,
8-220,,HARVEST PARK MIDDLE SCHOOL,,37.675394,-121.880486,,,,,,
8-221,,RUBY HILL DR & PIEMONTE DR,,37.647919,-121.818351,,,,,,
8-222,,GIBRALTER DR & WILLOW RD,,37.695793,-121.897936,,,,,,
8-223,,GIBRALTER DR  & WILLOW RD,,37.695945,-121.898383,,,,,,
8-226,,STONERIDGE & LAS POSITAS,,37.68896,-121.885223,,,,,,
8-227,,VALLEY & HANSEN,,37.668883,-121.901357,,,,,,
8-228,,RUBY HILL DR &  ROMANO CIR,,37.640888,-121.818216,,,,,,
8-230,,OLD BERNAL AVE & AUGUSTINE ST,,37.658494,-121.880069,,,,,,
8-231,,RUBY HILL  DR & PALERMO PL,,37.631341,-121.81105,,,,,,
8-232,,BERNAL AVE & INDEPENDENCE ST,,37.652384,-121.869297,,,,,,
8-233,,RUBY HILL DR & BRINDISI,,37.632288,-121.804436,,,,,,
8-234,,RUBY HILL DR & DONATA CT,,37.636485,-121.800126,,,,,,
8-235,,RUBY HILL RD & VANTINI WY,,37.642904,-121.803076,,,,,,
8-236,,BERNAL AVE & KOTTINGER DR,,37.655945,-121.859291,,,,,,
8-237,,RUBY HILL DR & SANGRO CT,,37.640143,-121.799798,,,,,,
8-238,,BERNAL & HEARST,,37.654884,-121.859636,,,,,,
8-240,,RUBY HILL DR & VARESE CT,,37.64982,-121.810636,,,,,,
8-241,,VINEYARD & EL CAPITAN,,37.664892,-121.846015,,,,,,
8-242,,VINYARD AVE & TOURIGA DR,,37.664836,-121.852413,,,,,,
8-243,,RUBY HILL & PIEMONTE,,37.648282,-121.807698,,,,,,
8-245,,RUBY HILL & PIEMONTE,,37.646933,-121.80674,,,,,,
8-247,,VALLEY & WILD ROSE,,37.655666,-121.895818,,,,,,
8-400,,HART MIDDLE SCHOOL,,37.68711,-121.896776,,,,,,
8-402,,STONERIDGE &  SANTA RITA,,37.687989,-121.874463,,,,,,
8-403,,KAMP & EILENE,,37.688191,-121.869666,,,,,,
8-404,,KAMP DR & CAMERON AVE,,37.685085,-121.868216,,,,,,
8-406,,MOHR & KOLLN,,37.681904,-121.873623,,,,,,
8-411,,MOHR & KOLLN,,37.681894,-121.872753,,,,,,
8-412,,KAMP DR & MOHR AVE,,37.68232,-121.868917,,,,,,
8-413,,KAMP DR & CAMERON AVE,,37.684817,-121.868205,,,,,,
8-414,,KAMP & EILENE,,37.688486,-121.869952,,,,,,
8-415,,STONERIDGE DR & MORENO AVE,,37.688123,-121.873558,,,,,,
8-416,,STONERIDGE & SANTA RITA,,37.68816,-121.876409,,,,,,
8-417,,STONERIDGE DR & STONE POINTE WY,,37.690974,-121.868094,,,,,,
8-418,,DENNIS & TREVOR,,37.692402,-121.857182,,,,,,
8-419,,DENNIS DR & GUZMAN PKWY,,37.69271,-121.862345,,,,,,
8-420,,TOURIGA DR & TAWNY DR,,37.663479,-121.852289,,,,,,
8-421,,RHINE WY &  ARBOR DR,,37.657226,-121.843967,,,,,,
8-422,,ARBOR DR & VINTAGE HILLS PARK,,37.657018,-121.850444,,,,,,
8-423,,ARBOR DR & TOURIGA DR,,37.657805,-121.8528,,,,,,
8-425,,VINEYARD AVE & VINEYARD PL,,37.662952,-121.861765,,,,,,
8-430,,PIMLICO &  SANTA RITA,,37.700175,-121.870339,,,,,,
8-431,,PIMLICO DR & BROCKTON DR,,37.700192,-121.868862,,,,,,
8-432,,PIMLICO DR & BELMONT WY,,37.700976,-121.86696,,,,,,
8-433,,3798 PIMLICO DR,,37.700973,-121.863983,,,,,,
8-434,,KIRCALDY & STACEY,,37.699917,-121.86016,,,,,,
8-435,,LAS POSITAS BLVD & MEADOWS PARK,,37.696793,-121.85847,,,,,,
8-436,,LAS POSITAS BLVD  & MELBOURNE CT,,37.695545,-121.859765,,,,,,
8-437,,LAS POSITAS & GULFSTREAM,,37.695291,-121.865295,,,,,,
8-438,,LAS POSITAS BLVD & ROCKINGHAM DR,,37.693972,-121.868537,,,,,,
8-439,,LAS POSITAS BLVD & SUFFOLK WY,,37.692814,-121.870988,,,,,,
8-440,,LAS POSITAS &  FAIRLANDS,,37.691827,-121.875981,,,,,,
8-500,,SANTA RITA RD & PICKENS LN,,37.694916,-121.877775,,,,,,
8-902,,VALLEY AVE & VIA DE LOS MILAGROS NB,,37.674396,-121.898354,,,,,,
8-996,,MARTIN & MOHR,,37.682395,-121.862633,,,,,,
8-997,,MARTIN & MOHR,,37.682208,-121.862656,,,,,,
9-001,,WALNUT CREEK BART,,37.905224,-122.066914,,,,,,
9-003,,PLEASANT HILL BART,,37.927949,-122.056244,,,,,,
