stop_id,stop_code,stop_name,stop_desc,stop_lat,stop_lon,zone_id,stop_url,location_type,parent_station,stop_timezone,wheelchair_boarding
1,79001,Union City BART Station,Terminal,37.590588,-122.017616,,,,,,1
2,79002,Union Square Mid-Block,Mid-Block,37.587308,-122.017098,,,,,,1
3,79003,Alvarado-Niles Rd & Decoto Rd,Nearside,37.587027,-122.020447,,,,,,1
4,79004,Alvarado-Niles Rd & Meyers Dr,Far Side,37.588215,-122.024424,,,,,,1
5,79005,Alvarado-Niles Rd & H St,Far Side,37.589285,-122.028333,,,,,,1
6,79006,Alvarado-Niles Rd & Hartnell St,Far Side,37.58988,-122.03044,,,,,,1
7,79007,Alvarado-Niles Rd & Western Ave,Far Side,37.591333,-122.035591,,,,,,1
8,79008,Alvarado-Niles Rd & Central Ave,Nearside,37.592257557,-122.039042936,,,,,,1
9,79009,Alvarado-Niles Rd & Dowe St,Far Side,37.593579,-122.044221,,,,,,1
10,79010,Alvarado-Niles Rd & Hop Ranch Rd,Far Side,37.594574,-122.047632,,,,,,1
11,79011,Alvarado-Niles Rd & Medallion Ave,Far Side,37.595721,-122.051912,,,,,,1
12,79012,Alvarado-Niles Rd & Almaden Bl,Nearside,37.596525,-122.054739,,,,,,1
13,79013,Union Landing Transit Center,Terminal,37.598792,-122.065656,,,,,,1
14,79014,Dyer St & San Carlos Ave,Far Side,37.59583,-122.070812,,,,,,1
15,79015,Dyer St & Santa Susana Wy,Nearside,37.593124,-122.069137,,,,,,1
16,79016,Dyer St & Alvarado Bl,Far Side,37.589460355,-122.070139005,,,,,,1
17,79017,Dyer St & Cabello St,Nearside,37.58724,-122.072054,,,,,,1
18,79018,Meteor Dr & Galaxy Dr,Far Side,37.585133,-122.069696,,,,,,1
19,79019,Meteor Dr & Chippendale Dr,Far Side,37.583357,-122.066396,,,,,,1
20,79020,Delores Dr & Muirwood Dr,Far Side,37.581242,-122.066805,,,,,,1
21,79021,Delores Dr & Laura Wy,Nearside,37.579608698,-122.068324281,,,,,,1
22,79022,Delores Dr & Deborah Dr,Far Side,37.577298,-122.070342,,,,,,1
23,79023,Delores Dr & Jean Dr,Nearside,37.575766,-122.072166,,,,,,1
24,79024,Jean Dr & Dinuba St,Nearside,37.574637034,-122.071746516,,,,,,1
25,79025,Jean Dr & Blythe St,Far Side,37.573846,-122.070154,,,,,,1
26,79026,Regents Bl & Rocklin Dr,Nearside,37.573035,-122.068778,,,,,,1
27,79027,Rocklin Dr & Danville Ave,Nearside,37.57244,-122.069078,,,,,,1
28,79028,Rocklin Dr & Antioch Loop,Far Side,37.570478,-122.071712,,,,,,1
29,79029,Rocklin Dr & Anaheim Loop,Far Side,37.569045,-122.072226,,,,,,1
30,79030,Union City Bl & Rocklin Dr,Far Side,37.568491,-122.073145,,,,,,1
31,79031,Union City Bl & Bay Colony Dr,Far Side,37.572965303,-122.078237488,,,,,,1
32,79032,Union City Bl & Rose Dr,Far Side,37.575727216,-122.079702875,,,,,,1
33,79033,Dyer St & Union City Bl,Far Side,37.577914,-122.080032,,,,,,1
34,79034,Dyer St & Jean Dr,Far Side,37.580267,-122.077817,,,,,,1
35,79035,Dyer St & Deborah Dr,Far Side,37.582395,-122.07596,,,,,,1
36,79036,Dyer St & Regents Bl,Nearside,37.583863,-122.074675,,,,,,1
37,79037,Dyer St & Meteor Dr,Far Side,37.586888821,-122.071999362,,,,,,1
38,79038,Dyer St Mid-Block,Nearside,37.588665,-122.070516,,,,,,1
39,79039,Dyer St & Alvarado Bl,Far Side,37.59035,-122.069053,,,,,,1
40,79040,Dyer St & Santa Susana Wy,Nearside,37.592801,-122.068722,,,,,,1
41,79041,Dyer St & Alvarado-Niles Rd,Nearside,37.596591,-122.070865,,,,,,1
42,79042,Alvarado-Niles Rd & Santa Maria Ave,Far Side,37.59805,-122.065844,,,,,,1
43,79043,Alvarado-Niles Rd & Almaden Bl,Far Side,37.596175,-122.054426,,,,,,1
44,79044,Alvarado-Niles Rd & Medallion Ave,Far Side,37.595327,-122.051283,,,,,,1
45,79045,Alvarado-Niles Rd & Hop Ranch Rd,Nearside,37.594313,-122.047648,,,,,,1
46,79046,Alvarado-Niles Rd & Dowe St,Nearside,37.593379,-122.044167,,,,,,1
47,79047,Alvarado-Niles Rd & Central Ave,Far Side,37.591927,-122.039136,,,,,,1
48,79048,Alvarado-Niles Rd & Western Ave,Nearside,37.590739,-122.034801,,,,,,1
49,79049,Alvarado-Niles Rd & Hartnell St,Far Side,37.589221,-122.029307,,,,,,1
50,79050,Alvarado-Niles Rd & Royal Ann Dr,Far Side,37.588737,-122.027421,,,,,,1
51,79051,Alvarado-Niles Rd & Nidus Dr,Far Side,37.587781,-122.023841,,,,,,1
52,79052,Decoto Rd & Alvarado-Niles Rd,Far Side,37.588095,-122.021178,,,,,,1
53,79053,Decoto Rd & Union Square,Far Side,37.590862981,-122.020136388,,,,,,1
54,79054,Union Square & BART Way,Far Side,37.589944854,-122.018861849,,,,,,1
55,79055,11th St & Decoto Rd,Far Side,37.593900738,-122.019569456,,,,,,1
56,79056,H St & 10th St,Nearside,37.596833581,-122.022046422,,,,,,1
57,79057,9th St & G St,Nearside,37.599004763,-122.021381519,,,,,,1
58,79058,9th St & E St,Nearside,37.600839254,-122.023522355,,,,,,1
59,79059,E St & 6th St,Nearside,37.60220097,-122.02178222,,,,,,1
60,79060,6th St & C St,Far Side,37.604474,-122.024182,,,,,,1
61,79061,Whipple Rd & Barnard White,Far Side,37.605996,-122.027914,,,,,,1
62,79062,Whipple Rd & Ithaca St,Far Side,37.606067182,-122.030470465,,,,,,1
63,79063,Whipple Rd & Central Ave,Far Side,37.606069,-122.038562,,,,,,1
64,79064,Whipple Rd & Hayman Ave,Far Side,37.60612,-122.045771,,,,,,1
65,79065,Whipple Rd & Medallion Ave,Far Side,37.606178,-122.052106,,,,,,1
66,79066,Whipple Rd & Huntwood Ave,Far Side,37.606171,-122.055306,,,,,,1
67,79067,Whipple Rd & Wiegman Ave,Nearside,37.606560964,-122.0611558,,,,,,1
68,79068,Whipple Rd & Dyer St,Far Side,37.60589,-122.069512,,,,,,1
69,79069,Whipple Rd & Ahern Ave,Far Side,37.605819,-122.077087,,,,,,1
70,79070,Whipple Rd & Kohoutek St,Nearside,37.605793,-122.07981,,,,,,1
71,79071,Kohoutek St & Whipple Rd,Far Side,37.606527,-122.080256,,,,,,1
72,79072,Kohoutek St & Mid-Block,Mid-Block,37.607894,-122.080481,,,,,,1
73,79073,Union City Bl & Kohoutek St,Far Side,37.607096,-122.082792,,,,,,1
74,79074,Union City Bl & Whipple Rd,Far Side,37.605158783,-122.082489561,,,,,,1
75,79075,Union City Bl & Bettencourt Rd,Nearside,37.59891,-122.081857,,,,,,1
76,79076,Smith St & Union City Bl,Far Side,37.596425,-122.080497,,,,,,1
77,79077,Smith St & Fredi St,Far Side,37.596423939,-122.076532945,,,,,,1
78,79078,Smith St & Dyer St,Nearside,37.596724314,-122.071378836,,,,,,1
79,79079,Almaden Bl & Trefry Dr,Nearside,37.595886,-122.055334,,,,,,1
80,79080,Almaden Bl & Los Robles Apartments,Nearside,37.594439,-122.055627,,,,,,1
81,79081,Almaden Bl & Polynesia Wy,Far Side,37.592577,-122.054609,,,,,,1
82,79082,Almaden Bl & Kawella Cir,Nearside,37.591226,-122.052731,,,,,,1
83,79083,Almaden Bl & Cumana Dr,Nearside,37.590344,-122.051099,,,,,,1
84,79084,Almaden Bl & Palm Dr,Far Side,37.588931,-122.050784,,,,,,1
85,79085,Almaden Bl & Chechester Dr,Nearside,37.59077,-122.051651,,,,,,1
86,79086,Medallion Ave & Brenda Dr,Nearside,37.593605,-122.052209,,,,,,1
87,79087,Medallion Ave & Brenda Dr,Nearside,37.593972,-122.052294,,,,,,1
88,79088,Almaden Bl & Horatio Ct,Far Side,37.592667,-122.054442,,,,,,1
89,79089,Almaden Bl & Sloccum Ct,Far Side,37.595869,-122.055217,,,,,,1
90,79090,Alvarado-Niles Rd & Dyer St,Nearside,37.597420109,-122.070225897,,,,,,1
91,79091,Smith St & Granger Ave,Far Side,37.596559,-122.075872,,,,,,1
92,79092,Union City Bl & Smith St,Far Side,37.596966,-122.080858,,,,,,1
93,79093,Union City Bl & Tara Ct,Nearside,37.599999,-122.081683,,,,,,1
94,79094,Union City Bl & Whipple Rd,Far Side,37.606122422,-122.082367324,,,,,,1
95,79095,Kohoutek St & Union City Bl,Far Side,37.608709,-122.081931,,,,,,1
96,79096,Kohoutek St & Whipple Rd,Nearside,37.607553,-122.080528,,,,,,1
97,79097,Whipple Rd & Kohoutek St,Far Side,37.605619,-122.079456,,,,,,1
98,79098,Whipple Rd & Meridien Dr,Far Side,37.605618,-122.075278,,,,,,1
99,79099,Whipple Rd & Dyer St,Nearside,37.605624785,-122.071319668,,,,,,1
100,79100,Whipple Rd & Industrial Parkway Southwest,Far Side,37.607003702,-122.064034447,,,,,,1
101,79101,Whipple Rd & Amaral Ave,Far Side,37.605971141,-122.057863902,,,,,,1
102,79102,Whipple Rd & Huntwood Ave,Far Side,37.605966,-122.054591,,,,,,1
103,79103,Whipple Rd & Medallion Ave,Nearside,37.605961,-122.051981,,,,,,1
104,79104,Whipple Rd & Hayman Ave,Far Side,37.605946,-122.045571,,,,,,1
105,79105,Whipple Rd & Central Ave,Far Side,37.605867,-122.0376,,,,,,1
106,79106,Whipple Rd & Railroad Ave,Nearside,37.605840234,-122.031516556,,,,,,1
107,79107,Whipple Rd & Barnard White,Nearside,37.605863864,-122.027760125,,,,,,1
108,79108,6th St & C St,Nearside,37.604396,-122.024216,,,,,,1
109,79109,E St & 6th St,Far Side,37.602274716,-122.021924489,,,,,,1
110,79110,9th St & E St,Far Side,37.600721109,-122.023600651,,,,,,1
111,79111,9th St & G St,Nearside,37.599081165,-122.021683049,,,,,,1
112,79112,H St & 10th St,Nearside,37.597070897,-122.021973537,,,,,,1
113,79113,Decoto Rd & 11th St,Far Side,37.593492903,-122.019506695,,,,,,1
114,79114,Decoto Rd & 11th St,Far Side,37.594074689,-122.018985471,,,,,,1
115,79115,Decoto Rd & 9th St,Nearside,37.59627,-122.018238,,,,,,1
116,79116,Decoto Rd & 7th St,Nearside,37.597390634,-122.017822193,,,,,,1
117,79117,7th St & Daggett Ave,Nearside,37.597423337,-122.015727985,,,,,,1
118,79118,7th St & Bedford Ave,Far Side,37.594948,-122.012003,,,,,,1
119,79119,7th St & Zwissig Ave,Far Side,37.591648,-122.008294,,,,,,1
120,79120,7th St & Cheseapeake Dr,Far Side,37.590282,-122.005663,,,,,,1
121,79121,Appian Wy & Mission Bl,Far Side,37.591606556,-122.003063894,,,,,,1
122,79122,Veneto St & Appian Wy,Nearside,37.592392269,-122.002817674,,,,,,1
123,79123,Veneto St & Famosa Ct,Mid-Block,37.593909,-122.004923,,,,,,1
124,79124,Masonic Home Main Entrance Gate,Mid-Block,37.597487353,-122.009849469,,,,,,1
125,79125,2nd St & Decoto Rd,Far Side,37.602240843,-122.016588836,,,,,,1
126,79126,2nd St & F St,Far Side,37.603555065,-122.018123187,,,,,,1
127,79127,2nd St & D St,Far Side,37.605393557,-122.020283745,,,,,,1
128,79128,Mission Bl & Whipple Rd,Far Side,37.607141,-122.020846,,,,,,1
129,79129,Tamarack Dr & Castro St,Far Side,37.608262217,-122.023487471,,,,,,1
130,79130,Tamarack Dr & Pulaski St,Far Side,37.608105851,-122.024539118,,,,,,1
131,79131,Tamarack Dr & Sumac Dr,Nearside,37.608020168,-122.027542626,,,,,,1
132,79132,Tamarack Dr & Ithaca St,Nearside,37.607580375,-122.03113144,,,,,,1
133,79133,Industrial Parkway Southwest & Whipple Rd,Far Side,37.608043894,-122.065103338,,,,,,1
134,79134,Calaveras Landing Shopping Center,Nearside,37.612185,-122.068294,,,,,,1
135,79135,Industrial Parkway Southwest Mid-Block,Nearside,37.608901,-122.065989,,,,,,1
136,79136,Dyer St & Whipple Rd,Far Side,37.604348,-122.069326,,,,,,1
137,79137,Dyer St & Alvarado-Niles Rd,Nearside,37.598578,-122.071066,,,,,,1
138,79138,Alvarado Bl & Dyer St,Far Side,37.590077,-122.07008,,,,,,1
139,79139,Alvarado Bl & Fair Ranch Dr,Far Side,37.591353,-122.07236,,,,,,1
140,79140,Alvarado Bl & New Haven Ave,Far Side,37.592616,-122.074978,,,,,,1
141,79141,Alvarado Bl & Fredi St,Nearside,37.591884,-122.077414,,,,,,1
142,79142,Union City Bl & Alvarado Bl,Far Side,37.590974,-122.081284,,,,,,1
143,79143,Union City Bl & Regents Bl,Far Side,37.58698,-122.081239,,,,,,1
144,79144,Union City Bl & Jean Dr,Far Side,37.580713,-122.081013,,,,,,1
145,79145,Regents Bl & Cabello St,Nearside,37.586056615,-122.076069767,,,,,,1
146,79146,Regents Bl & Queensboro Wy,Nearside,37.587555,-122.078869,,,,,,1
147,79147,Union City Bl & Montevideo Ct ,Nearside,37.588438,-122.080702,,,,,,1
148,79148,Union City Bl & Alvarado Bl,Nearside,37.590696,-122.080687,,,,,,1
149,79149,Alvarado Bl & Fredi St,Far Side,37.591712,-122.077198,,,,,,1
150,79150,Alvarado Bl & New Haven Ave,Nearside,37.592246,-122.074537,,,,,,1
151,79151,Alvarado Bl & Fair Ranch Dr,Nearside,37.591201,-122.072557,,,,,,1
152,79152,Mann Ave & Skylark Dr,Nearside,37.584990566,-122.017509123,,,,,,1
153,79153,Mann Ave & Perry Rd,Nearside,37.582601703,-122.018113696,,,,,,1
154,79154,Perry Rd & Kennedy Ave,Nearside,37.5830219,-122.020493229,,,,,,1
155,79155,Perry Rd & Decoto Rd,Far Side,37.583787491,-122.023404614,,,,,,1
156,79156,Perry Rd & Maraschino Pl,Nearside,37.584251951,-122.025477246,,,,,,1
157,79157,Perry Rd & Royal Ann Dr,Nearside,37.585008176,-122.028906495,,,,,,1
158,79158,Royal Ann Dr & Arizona St,Nearside,37.586774532,-122.028240048,,,,,,1
159,79159,Central Ave & Pacific Ave,Nearside,37.595851078,-122.037930192,,,,,,1
160,79160,Central Ave Mid-Block,Mid-Block,37.599335806,-122.037818548,,,,,,1
161,79161,Central Ave & Atlantic Ave,Nearside,37.601849636,-122.037791177,,,,,,1
162,79162,11th St & Decoto Rd,Far Side,37.59340609,-122.018907962,,,,,,1
163,79163,East Plaza Transit Loop,Terminal,37.591154597,-122.016976453,,,,,,1
164,79164,11th St & Galiano Wy,Far Side,37.593444249,-122.018582958,,,,,,1
165,79165,Central Ave & Whipple Rd,Far Side,37.605498588,-122.037998518,,,,,,1
166,79166,Central Ave & Atlantic Ave,Nearside,37.60235009,-122.038025652,,,,,,1
167,79167,Central Ave Mid-Block,Mid-Block,37.599445813,-122.038041945,,,,,,1
168,79168,Central Ave & Pacific Ave,Nearside,37.596305168,-122.038073329,,,,,,1
169,79169,Royal Ann Dr & Alvarado-Niles Rd,Far Side,37.588674893,-122.027861973,,,,,,1
170,79170,Royal Ann Dr & Arizona St,Nearside,37.58717077,-122.028288771,,,,,,1
171,79171,Royal Ann Dr & Perry Rd,Nearside,37.585146152,-122.029167734,,,,,,1
172,79172,Perry Rd & Maraschino Ct,Nearside,37.584176183,-122.025849461,,,,,,1
173,79173,Perry Rd & Decoto Rd,Far Side,37.583316363,-122.022270178,,,,,,1
174,79174,Perry Rd & Kennedy Ave,Far Side,37.582893029,-122.020512052,,,,,,1
175,79175,Mann Ave & Perry Rd,Far Side,37.582612797,-122.01794541,,,,,,1
176,79176,Mann Ave & Skylark Dr,Nearside,37.58456929,-122.017295077,,,,,,1
177,79177,Dyer St & Regents Bl,Nearside,37.584863315,-122.074053455,,,,,,1
178,79178,Dyer St & Deborah Dr,Far Side,37.582159002,-122.076461448,,,,,,1
179,79179,Dyer St & Jean Dr,Far Side,37.579783621,-122.078537755,,,,,,1
180,79180,Union City Bl & Dyer St,Far Side,37.577098279,-122.080816348,,,,,,1
181,79181,Union City Bl & Rose Dr,Far Side,37.574638698,-122.079489162,,,,,,1
182,79182,Delores Dr & Shirley Ct,Far Side,37.571291,-122.07628,,,,,,1
183,79183,Delores Dr & Gina Wy,Nearside,37.57311,-122.073822,,,,,,1
184,79184,Delores Dr & Shiela Wy,Far Side,37.574741,-122.072392,,,,,,1
185,79185,Delores Dr & Jean Dr,Far Side,37.575517,-122.072475,,,,,,1
186,79186,Delores Dr & Deborah Dr,Nearside,37.577193,-122.070239,,,,,,1
187,79187,Delores Dr & Regents Bl,Nearside,37.579611,-122.068076,,,,,,1
188,79188,Delores Dr & Polaris Ave,Nearside,37.581935,-122.065716,,,,,,1
189,79189,Meteor Dr & Chippendale Dr,Far Side,37.583625,-122.066662,,,,,,1
190,79190,Meteor Dr & Galaxy Dr,Nearside,37.58481,-122.068915,,,,,,1
191,79191,Dyer St & Ratekin Dr,Nearside,37.59993,-122.070309,,,,,,1
192,79192,Dyer St & Whipple Rd,Nearside,37.604453183,-122.068922568,,,,,,1
193,79193,Horner St & Union City Bl,Far Side,37.595385084,-122.080064254,,,,,,1
194,79194,Horner St & Fredi St,Nearside,37.593920406,-122.077370034,,,,,,1
195,79195,Fredi St & Alvarado Bl,Nearside,37.592045537,-122.077841299,,,,,,1
196,79196,Alvarado Bl & Union City Bl,Nearside,37.591758034,-122.080399541,,,,,,1
197,79197,Union City Bl & Horner St,Nearside,37.595333175,-122.08076109,,,,,,1
198,79198,Whipple Rd & Union City Bl,Far Side,37.605513941,-122.081752248,,,,,,1
199,79199,Tamarack Dr & Moccasin Dr,Nearside,37.607757651,-122.030635564,,,,,,1
200,79200,Tamarack Dr & Sumac Dr,Nearside,37.607881531,-122.027892041,,,,,,1
201,79201,Tamarack Dr & Pulaski St,Nearside,37.60798121,-122.024488527,,,,,,1
202,79202,Mission Bl & Tamarack Dr,Far Side,37.608313,-122.022623,,,,,,1
203,79203,Mission Bl & Whipple Rd,Far Side,37.605783,-122.019771,,,,,,1
204,79204,Mission Bl & F St,Nearside,37.603814,-122.017593,,,,,,1
205,79205,Mission Bl & Daggett Ave,Far Side,37.598303,-122.011438,,,,,,1
206,79206,Veneto St & Corona Pl,Nearside,37.594,-122.005087,,,,,,1
207,79207,Appian Wy & Mission Bl,Nearside,37.592002,-122.002868,,,,,,1
208,79208,7th St & Cheseapeake Dr,Far Side,37.590521,-122.006711,,,,,,1
209,79209,7th St & Daggett Ave,Far Side,37.597126,-122.014168,,,,,,1
210,79210,Decoto Rd & 7th St,Far Side,37.597759522,-122.018011149,,,,,,1
211,79211,Decoto Rd & Depot Rd,Far Side,37.595689,-122.01874,,,,,,1
212,79212,Union City Bl & Bay Colony Dr,Far Side,37.571572539,-122.077841848,,,,,,1
213,79213,Union City Bl & Rocklin Dr,Far Side,37.567743545,-122.072336749,,,,,,1
214,79214,Union City Bl & Delores Dr,Far Side,37.571182966,-122.077149841,,,,,,1
215,79215,Alvarado-Niles Rd Mid-Block (Post Office),Mid-Block,37.592828429,-122.041173962,,,,,,1