stop_id,stop_code,platform_code,stop_name,stop_desc,stop_lat,stop_lon,zone_id,stop_url,location_type,parent_station,stop_timezone
937,93700,,Grove Street & W. Grant St.,,38.6163442313,-122.8755523129,462,,0,,
759015,57680,,Country Club Dr. & Ellen St.,,38.35520308,-122.6942691,471,,0,,
757358,20830,,Bodega Ave. & Pleasant Hill Ave.,,38.39827084,-122.8389857,466,,0,,
757501,33500,,Sonoma Dev. Center,,38.34900159,-122.5168446,469,,0,,
757777,60700,,Hwy. 116 & Fredricks Rd.,,38.37415647,-122.791295,466,,0,,
757960,82000,,Valletti Dr.  & Lake St.,,38.32174772,-122.489945,470,,0,,
757525,35600,,Hwy. 12 & Fairway Dr.,,38.45942202,-122.6371377,468,,0,,
757383,23900,,Montgomery Village,,38.44673427,-122.6868985,467,,0,,
757608,44900,,Old Redwood Hwy. & Page St.,,38.32430876,-122.7044383,471,,0,,
757903,72300,,RP Expressway & LaBath,,38.348844,-122.723836,471,,0,,
757462,30710,,Broadway & W MacArthur,,38.2840079703,-122.4592338727,470,,0,,
757269,15000,,Larkfield Shopping Center,,38.50101805,-122.7517331,463,,0,,
757641,47900,,Petaluma Estates MHP,,38.26406909,-122.6524885,472,,0,,
757241,13300,,Sonoma Co. Airport Terminal Stop,,38.51007376,-122.8053011,463,,0,,
757552,39300,,Graton Rd. & Sonoma Ave.,,38.43685602,-122.8622679,466,,0,,
757818,64210,,Fircrest MHP Clubhouse,,38.3915415114,-122.8130926639,466,,0,,
757587,42820,,Labath & Martin,,38.35527369,-122.7224293,471,,0,,
757621,46100,,Petaluma Blvd. & Skillman Ln.,,38.25965994,-122.6603096,472,,0,,
757625,46400,,Petaluma Blvd. & West St.,,38.24215062,-122.644033,472,,0,,
759011,57640,,Fairway Dr. & Country Club Dr.,,38.36630923,-122.6981033,471,,0,,
757899,72020,,Labath & Martin,,38.35542992,-122.7222666,471,,0,,
757957,81600,,Hwy. 12 & 3rd St. West,,38.29267605,-122.4649737,470,,0,,
757649,48100,,McDowell Blvd. & Sunrise Parkway,,38.25937467,-122.6441636,472,,0,,
757181,08400,,Geyserville Ave. & Zanzi Ln.,,38.74198089,-122.9495214,461,,0,,
757415,26700,,Hwy. 12 & Kunde Ranch Rd.,,38.41078732,-122.544071,468,,0,,
757969,82900,,Hwy. 12 & 3rd St. West,,38.2924891,-122.4643189,470,,0,,
757085,01080,,Range Ave. & @ Paulin Creek,,38.46269277,-122.732721,467,,0,,
757895,71800,,Enterprise Dr. & Hunter Dr.,,38.34471544,-122.70642,471,,0,,
758061,961,,W. 3rd St. & Cloverdale Blvd.,,38.8076420005,-123.0189439507,550,,0,,
757220,11910,,Old Redwood Hwy. & Deanna Pl.,,38.53269295,-122.7851346,463,,0,,
757769,58500,,East Cotati Ave. & Lancaster Dr.,,38.33040071,-122.6954836,471,,0,,
759009,57610,,Holly Ave. & Hillview Way,,38.37070483,-122.6903142,471,,0,,
757685,51300,,Adrian Dr. & Arlen Dr.,,38.33967798,-122.7057163,471,,0,,
757119,02900,,Old Redwood Hwy. & Thrushwing,,38.53794826,-122.7908582,463,,0,,
758065,970,,Brookside Dr. & Cloverdale Blvd.,,38.7917312269,-123.0171622834,550,,0,,
758050,91600,,Old Redwood Hwy. & Market St.,,38.5493171444,-122.8131974073,463,,0,,
757309,17500,,Hwy. 116 & Ridgecrest Dr.,,38.47761809,-122.9983688,464,,0,,
757727,54630,,Sonoma Mtn. Pkwy. & Rainier Ave.,,38.26294282,-122.6300462,472,,0,,
757672,50400,,Old Redwood Hwy. & Fern Ave.,,38.30971175,-122.6903806,471,,0,,
757521,35210,,Hwy. 12 & Oakmont Dr.,,38.4457331,-122.6058789,468,,0,,
757522,35300,,Hwy. 12 & Melita Rd. (East End),,38.45375867,-122.6230268,468,,0,,
757664,49600,,Petaluma Blvd. N. & Stony Pt. Rd.,,38.26951289,-122.6703298,472,,0,,
757643,47920,,Sonoma Mtn. Pkwy. & Colombard Rd.,,38.26883044,-122.6428137,472,,0,,
757833,65400,,Moorland Ave. & Bellevue Ave.,,38.4008598006436,-122.718474770674,467,,0,,
757725,54610,,Rainier Ave. & Maria Dr.,,38.25826859,-122.6327059,472,,0,,
757228,12200,,Old Redwood Hwy. & Shiloh Rd.,,38.521731,-122.775906,463,,0,,
757404,25900,,Ac. Oakmont Golf Course,,38.43266568,-122.5943358,468,,0,,
757560,40200,,Santa Rosa Ave. & Maple Ave.,,38.43172196,-122.7114073,467,,0,,
928,93000,,Riverview Club House,Flag Stop,38.6095221332,-122.8518218965,462,,0,,
757941,75500,,Railroad St. & West Third St.,,38.43583788,-122.7201699,467,,0,,
757559,40100,,Santa Rosa Ave. & Sebastopol Ave.,,38.43393453,-122.7119073,467,,0,,
925,92600,,Catholic Church (Matheson St.),,38.610732959315,-122.868019186936,462,,0,,
757356,20810,,Burbank Heights,,38.39536852,-122.8339722,466,,0,,
757509,34300,,Kenwood (Hwy. 12 & Greene St.),,38.42035131,-122.5521401,468,,0,,
757752,56700,,East Cotati Ave. & Sequoia Way,,38.33624372,-122.6754723,471,,0,,
757334,19200,,Mirabel Rd. & Giusti Rd.,,38.48098175,-122.8949012,465,,0,,
929,93100,,Riverside Club House,Flag Stop,38.6095400275339,-122.850292072845,462,,0,,
757222,12000,,Old Redwood Hwy. & Kendall Way,,38.527706,-122.780775,463,,0,,
757371,21200,,Wright Rd. & Sebastopol Rd.,,38.42531573,-122.7690532,467,,0,,
757911,73100,,Country Club Dr. & Santa Cruz Way,,38.34964807,-122.6954733,471,,0,,
757158,06600,,Asti Rd. & Washington School Rd.,,38.75638889,-122.9712799,461,,0,,
758073,98100,,Salmon Creek Beach,,38.3556914549,-123.0662585569,479,,0,,
759016,57690,,Country Club Dr. & Emily St.Â ,,38.35209757,-122.6957081,471,,0,,
757154,06200,,Geyserville Ave. & Geysers Ridge Rd.,,38.7106872,-122.9115988,461,,0,,
757480,31740,,Boyes Blvd. & Riverside Dr.,,38.31314734,-122.4881561,470,,0,,
757340,19800,,Green Valley Rd. & Hwy. 116/Hicks Rd.,,38.44576348,-122.8673598,466,,0,,
757488,32300,,Hwy. 12 & Thompson Ave.,,38.31013188,-122.4794077,470,,0,,
757327,18710,,River Rd. & River Dr. (East),,38.50925504,-122.9222597,465,,0,,
757503,33700,,Glen Ellen (Arnold Dr. & London Ranch Rd.),,38.36217016,-122.5257982,469,,0,,
757984,84900,,Adobe Rd. & Stage Gulch Rd.,,38.23655957,-122.5271605,473,,0,,
758030,89500,,Hembree Ln. & Pepper Tree Dr.,,38.5512575708,-122.7979813212,463,,0,,
757175,07900,,Cloverdale Blvd & Sandholm Dr.,,38.78107398,-123.0090673,460,,0,,
757524,35500,,Hwy. 12 & Los Alamos,,38.45839514,-122.6347013,468,,0,,
757417,26900,,Hwy. 12 & Trinity Rd.,,38.37931743,-122.5144505,469,,0,,
757648,48000,,McDowell Blvd. & Southpoint,,38.26093456,-122.6469814,472,,0,,
757433,28400,,Hwy. 12 & Hawthorne Ave.,,38.31142427,-122.4803481,470,,0,,
759021,57660,,Golf Course Dr. & Fairway Dr.,,38.3620626065484,-122.707006931305,471,,0,,
758055,953,,Cloverdale Blvd. & Fourth St.,,38.8081623403,-123.0189965272,550,,0,,
757726,54620,,Rainier Ave. & Acadia Dr.,,38.26200457,-122.6298689,472,,0,,
757542,38500,,Hwy. 12 & Llano Rd.,,38.41233655,-122.7940713,466,,0,,
757805,63000,,East Cotati Ave. & Bodway/Vine,,38.33599657,-122.6773239,471,,0,,
757681,50900,,East Cotati Ave. & La Salle Ave.,,38.32862395,-122.6991816,471,,0,,
757946,76300,,Sebastopol Rd. & Lombardi Ln.,,38.4263991,-122.7490453,467,,0,,
761167,92000,,Mcleland Dr. & Duvander Lane,,38.5482822547434,-122.816074428172,463,,0,,
757245,13420,,Skylane Blvd. & Kittyhawk Blvd.,,38.52260594,-122.8001615,463,,0,,
758077,98500,,Bodega (Eastbound),,38.3456810231,-122.9736877254,486,,0,,
757369,21040,,Occidental Rd. & Merced Ave.,,38.42431401,-122.7745592,467,,0,,
757257,14000,,Airport Blvd. & Brickway Blvd.,,38.51096978,-122.7932966,463,,0,,
757304,17360,,Hwy. 116 & Cazadero Hwy.,,38.46695085,-123.0509308,464,,0,,
757835,65600,,Corby Ave. & Hearn Ave.,,38.41039025,-122.7163348,467,,0,,
758934,70740,,Technology Middle School,,38.3393441620292,-122.699864208698,471,,0,,
757248,13460,,Windsor Rd. & Patrick Ln.,,38.54283958,-122.8167441,463,,0,,
757690,51710,,RP Expressway & Hwy. 101,,38.348587,-122.7118547,471,,0,,
757598,43800,,Commerce Blvd. & Arlen Dr.,,38.34087434,-122.7123831,471,,0,,
757111,02510,,Shiloh Rd. & Old Redwood Hwy.,,38.52580463,-122.781513,463,,0,,
757582,42100,,Wal-Mart (parking lot),,38.36828957,-122.7153847,471,,0,,
757760,57600,,Snyder Ln. & Holly,,38.3694557906981,-122.685637772083,471,,0,,
757803,62800,,East Cotati Ave. & Camino Colegio Ave.,,38.33495475,-122.6868396,471,,0,,
757724,54600,,N. McDowell Blvd. & Rainer Ave.,,38.25566879,-122.637162,472,,0,,
757266,14700,,Old Redwood Hwy. & Faught Rd.,,38.50853376,-122.7599479,463,,0,,
757320,18100,,River Rd. & Old River Rd.,,38.5047026375689,-122.992129567251,464,,0,,
757307,17390,,Hwy. 116 & Front St.,,38.46967229,-123.014148,464,,0,,
757490,32500,,Hwy. 12 & Balsam Ave.,,38.316833,-122.4835321,470,,0,,
757885,71010,,Technology Middle School,,38.33932777,-122.7001032,471,,0,,
757070,00300,,Mendocino Ave. & Cherry St.,,38.44453,-122.716873,467,,0,,
757366,21010,,Irwin Ln. & Hwy. 12,,38.41793759,-122.7894844,466,,0,,
757527,35800,,St. Francis Ctr. (Hwy. 12 & Calistoga Rd.),,38.464987,-122.6524638,468,,0,,
757857,68300,,River Rd.,,38.5041628,-122.9404752,464,,0,,
757986,85100,,Lakeville Hwy. & Frates Rd.,,38.23471552,-122.5945552,472,,0,,
757135,04600,,Old Redwood Hwy. & Eastside Rd.,,38.57778632,-122.8431234,462,,0,,
757927,73900,,Rancho Feliz Mobile Home Park ,,38.34487961,-122.7148058,471,,0,,
757896,71900,,RP Expressway & Redwood Dr.,,38.3485255,-122.7179762,471,,0,,
757763,57900,,Petaluma Hill Rd. & Kawana Springs Rd.,,38.41698222,-122.7041053,467,,0,,
757931,74200,,Hwy. 116 & Alder Ave.,,38.33243437,-122.7213076,471,,0,,
757974,84100,,3rd St. West & Perkins St.,,38.28910403,-122.4640984,470,,0,,
757846,66800,,Standish Ave. & Sutton Pl.,,38.3907609,-122.7231599,467,,0,,
757305,17370,,Hwy. 116 & Laurel Dell Ave.,,38.46668715,-123.0411087,464,,0,,
757079,01020,,Administration Dr. & Ventura,,38.46416122,-122.7239988,467,,0,,
757853,67900,,River Rd. & Mirabel Rd.,,38.49361363,-122.8956529,465,,0,,
757264,14450,,Mark West Springs Rd. & Old Redwood Hwy.,,38.496407,-122.750122,483,,0,,
758064,964,,Brookside Dr. & Foothill Blvd.,,38.7913801264,-123.0197186318,550,,0,,
757097,01840,,Fulton Rd. & River Rd.,,38.49697808,-122.7699069,463,,0,,
757973,84000,,Sonoma Marketplace (Mid-Center Stop),,38.29056248,-122.4625124,470,,0,,
758029,89400,,Hembree Ln. & Bay Tree Ct.,,38.5487594785,-122.7979716932,463,,0,,
757252,13510,,Skylane Blvd. & Kittyhawk Blvd.,,38.52187916,-122.8002943,463,,0,,
757758,57400,,Snyder Ln. & Eleanor St.,,38.36020383,-122.6856466,471,,0,,
757939,74910,,R.P. Expressway & Snyder Ln.,,38.34568132,-122.6845804,471,,0,,
759010,99999,,Holly Ave. & Fairway Dr.,,38.37177394,-122.6961145,471,,0,,
757368,21030,,Earl Baum Ctr. (Occidental Rd.),,38.42373072,-122.7803922,466,,0,,
757467,31000,,Fifth St. West & West MacArthur,,38.28616649,-122.4690151,470,,0,,
757900,72030,,Business Park Dr. & Redwood Dr.,,38.35760723,-122.7143603,471,,0,,
757256,13900,,Westwind Blvd. & Airport Blvd.,,38.50906653,-122.7957391,463,,0,,
757489,32400,,Boyes Hot Springs (Sonoma Mission Inn),,38.3145854,-122.4817477,470,,0,,
757975,84200,,Sonoma Valley Hospital,,38.2886293,-122.4660909,470,,0,,
757493,32710,,Hwy. 12 & Madrone Rd.,,38.34458873,-122.4981799,470,,0,,
757669,50100,,Old Redwood Hwy. & Adobe Rd.,,38.29986755,-122.6739944,471,,0,,
757698,52000,,Commerce Blvd. & Cascade Ct.,,38.35954498,-122.7124414,471,,0,,
757937,74800,,Lawrence Jones Middle School,,38.35253656,-122.6857821,471,,0,,
759013,99999,,Fairway Dr. & Golf Course Dr.,,38.36312092,-122.7068205,471,,0,,
757157,06500,,Geyserville Rd. & Zanzi Ln.,,38.74208701,-122.9493358,461,,0,,
757798,62730,,Camino Colegio & Maple,,38.32624353,-122.6852626,471,,0,,
758078,98600,,Freestone (Eastbound),,38.3729335413,-122.9106488213,486,,0,,
758015,88000,,Windsor Rd. & Vintage Green,,38.53443858,-122.8167938,463,,0,,
757396,25200,,Hwy. 12 & Los Alamos,,38.45792645,-122.633575,468,,0,,
757419,27000,,Arnold Dr. & Warm Springs Rd.,,38.3638298,-122.5244788,469,,0,,
757112,02520,,Shiloh Center & Wal-Mart (Hembree),,38.52636961,-122.7888748,463,,0,,
757842,66300,,Moorland Ave. & West Robles Ave.,,38.39455905,-122.7186306,467,,0,,
757326,18700,,River Rd. & Westside Rd.,,38.50818105,-122.9290174,464,,0,,
757870,69500,,Monte Rio & Hwy. 116,,38.46778253,-123.0110265,464,,0,,
758027,89200,,Hembree Ln. & (driveway),,38.5438545261,-122.7981993686,463,,0,,
757318,18040,,Orchard Ave. & River Ln.,,38.4896846112418,-123.013768284795,464,,0,,
757464,30730,,Leveroni Rd. & Fryer Creek Dr.,,38.27643114,-122.4654306,470,,0,,
757535,36600,,Montgomery Dr. & Yulupa Ave.,,38.44936432,-122.6795069,467,,0,,
757553,39400,,Graton,,38.43751134,-122.8698057,466,,0,,
757656,48700,,E. Washington St. & Vallejo,,38.24072318,-122.6338275,472,,0,,
757865,69000,,Guerneville (Gasco),,38.50202851,-123.0007925,464,,0,,
757951,76700,,Irwin Ln. & Occidental Rd.,,38.42294861,-122.7880759,466,,0,,
757706,52900,,Santa Rosa Ave. & Butterfly Ln.,,38.39664861,-122.713364,467,,0,,
757395,25100,,Hwy. 12 & Fairway Dr.,,38.45919086,-122.6373326,468,,0,,
757187,08900,,Geyserville Ave. & Walden St.,,38.70532814,-122.9022357,461,,0,,
757233,12900,,Airport Blvd. & Aviation Blvd.,,38.51123813,-122.781666,463,,0,,
757839,66000,,Corby Ave. & Bellevue Ave.,,38.40737935,-122.7164909,467,,0,,
757822,64500,,Petaluma Ave. & Abbott,,38.40071985,-122.8221431,466,,0,,
757451,30210,,W. MacArthur St. & 4th St. West,,38.28550484,-122.4670585,470,,0,,
757614,45500,,Old Redwood Hwy. & Penngrove Ave.,,38.30046413,-122.6758683,471,,0,,
758001,86600,,Temelec Circle & Mission Dr.,,38.26552377,-122.4891456,470,,0,,
758020,88500,,Bell Rd. & Conde Ln.,,38.5369476866,-122.8014473808,463,,0,,
757081,01040,,Russell & Ventura (Kaiser Stop),,38.46920628,-122.7257582,467,,0,,
757306,17380,,Hwy. 116 & west of Duncan Rd.,,38.4773201,-123.0257457,464,,0,,
757618,45900,,Old Redwood Hwy. & McDowell/Redwood Way,,38.27722178,-122.669082,472,,0,,
757500,33400,,Arnold Dr. & Traxler,,38.3464424,-122.5143138,469,,0,,
757736,55100,,Ac. Petaluma Estates MHP,,38.26455448,-122.6528389,472,,0,,
757854,68000,,River Rd. & Scenic Rd.,,38.50603184,-122.9137523,465,,0,,
757657,48900,,Washington St. & Grey St.,,38.23647686,-122.6390952,472,,0,,
757282,15750,,Kaiser Stop / Bicentennial Ave.,,38.47010018,-122.724888,467,,0,,
757688,51600,,Commerce Blvd. & Enterprise Dr.,,38.34511017,-122.7115498,471,,0,,
757976,84400,,DeAnza/Moon Valley MHP (Inside),,38.28399801,-122.4697447,470,,0,,
757747,56200,,Petaluma Hill Rd. & Valley House Dr.,,38.32085142,-122.6666625,471,,0,,
757164,07100,,Cloverdale Blvd. & Brookside Dr.,,38.79200937,-123.0174969,460,,0,,
757216,11600,,Old Redwood Hwy. & Pleasant Ave.,,38.54025006,-122.7942947,463,,0,,
757242,13310,,Airport Blvd. & N. Laughlin Rd.,,38.51091307,-122.801606,463,,0,,
757961,82100,,Boyes Blvd. @ Post Office,,38.3142425,-122.4825071,470,,0,,
757929,74010,,Houser St. & Redwood Dr.,,38.339079,-122.71389,471,,0,,
757403,25800,,Oakmont Dr. & RidgeGreen Dr.,,38.43516372,-122.5981164,468,,0,,
757504,33800,,Arnold Dr. & Carquinez Ave.,,38.36383294,-122.5243097,469,,0,,
757406,26100,,Pythian Rd. & Pythian Ct.,,38.42881122,-122.5839619,468,,0,,
757605,44600,,East Cotati Ave. & Adrian Dr.,,38.32972436,-122.6971798,471,,0,,
757893,71500,,Country Club Dr. & Civic Center Dr.,,38.34663134,-122.6963733,471,,0,,
757966,82600,,Railroad Ave. & Craig Ave.,,38.30650699,-122.4890656,470,,0,,
757126,03600,,Windsor River Rd. & Starr Rd.,,38.5473518,-122.8252264,463,,0,,
757923,73750,,Fairway Dr. & Holly Ave.,,38.37160252,-122.6962735,471,,0,,
757092,01600,,Old Redwood Hwy. & Cardinal Newman HS,,38.49145401,-122.7410319,467,,0,,
757477,31710,,Railroad Ave. & Craig Ave.,,38.30589593,-122.4886073,470,,0,,
757921,73730,,Fairway & Flores,,38.36543687,-122.7047319,471,,0,,
757388,24400,,Hwy. 12 & Acacia Ln.,,38.46231943,-122.6687212,467,,0,,
757741,55600,,N. McDowell Blvd. & Old Redwood Hwy.,,38.27399231,-122.6662042,472,,0,,
757879,70500,,Lancaster & Lords Manor Way,,38.32469699,-122.6905845,471,,0,,
757134,04500,,Old Redwood Hwy. & Eastside Rd.,,38.57451945,-122.84165,462,,0,,
757737,55200,,N. McDowell Blvd. & Corona Rd.,,38.26542516,-122.6544285,472,,0,,
757782,61200,,Hwy. 116 & Woodworth Rd.,,38.34848627,-122.762207,471,,0,,
757970,83000,,Sonoma Marketplace (on West Napa),,38.2922349,-122.4621196,470,,0,,
757617,45800,,Old Redwood Hwy. & Goodwin Ave.,,38.28354879,-122.6676657,471,,0,,
759361,90910,,Los Amigos & Cordelia Ln.,,38.5555678756499,-122.816557735205,463,,0,,
757263,14440,,River Rd. & W. of Hwy. 101,,38.49628523,-122.760916,483,,0,,
757610,45100,,Old Redwood Hwy. & West Railroad Ave.,,38.31446418,-122.6946144,471,,0,,
757413,26500,,Kenwood (Hwy. 12 & Greene St.),,38.42035755,-122.5523973,468,,0,,
757448,29900,,5th St. W. & W. Napa,,38.29227353,-122.4682875,470,,0,,
758059,958,,Jefferson St. & School St.,,38.8093802289,-123.0242082305,550,,0,,
757253,13520,,Skylane Blvd. & Aviation Blvd.,,38.5162349,-122.7991452,463,,0,,
757626,46410,,Petaluma Blvd. & Kent St.,,38.23979036,-122.6433605,472,,0,,
757137,04800,,Old Redwood Hwy. & Limerick Ln.,,38.5886666,-122.8494604,462,,0,,
757408,26300,,Pythian Rd. & Hwy. 12,,38.43479869,-122.5784843,468,,0,,
924,93400,,Russian River Pines Apartments,,38.6049213298581,-122.861344660861,462,,0,,
757332,19020,,River Rd. & Woolsey Rd.,,38.49322016,-122.787103,463,,0,,
758042,90800,,Los Amigos Ro. & Lazy Creek Dr.,,38.5525984309,-122.8135303928,463,,0,,
757203,10400,,Old Redwood Hwy. & West of Hwy. 101,,38.56596714,-122.8309824,463,,0,,
757978,84600,,Temelec Circle & Mission Dr.,,38.2654404,-122.4893495,470,,0,,
757165,07200,,Cloverdale Blvd. & Tarman Dr.,,38.79816744,-123.0181411,460,,0,,
757423,27400,,Arnold Dr. & Traxler Dr.,,38.34632999,-122.514483,469,,0,,
757925,73770,,Holly Ave. & Hillview Way,,38.37059772,-122.6903737,471,,0,,
757977,84500,,Temelec Circle & Almeria Dr.,,38.26717447,-122.4906072,470,,0,,
757563,40240,,Petaluma Hill Rd. & Hunter Ln.,,38.38485199,-122.6876788,471,,0,,
757655,48600,,E. Washington St. & Ellis St.,,38.24353483,-122.6312198,472,,0,,
757338,19600,,Hwy. 116 & Appian Way,,38.45793736,-122.8737267,465,,0,,
757666,49800,,Old Redwood Hwy. & Ely Rd.,,38.28435374,-122.6672606,471,,0,,
758932,70720,,Burton Ave. & Bonnie Ave.,,38.3340234761138,-122.696465849876,471,,0,,
758084,99200,,Duncans Mills (Eastbound),,38.4531464373,-123.053945326,464,,0,,
757237,13120,,Copperhill Parkway & N. Laughlin Rd.,,38.50752046,-122.7979583,463,,0,,
757992,85700,,Lakeville St. & Caufield,,38.23546956,-122.6232076,472,,0,,
757215,11500,,Old Redwood Hwy. & Hembree Ln.,,38.5414302106652,-122.796816558301,463,,0,,
757440,29000,,Verano Ave. (outside FAHA),,38.30284298,-122.4808773,470,,0,,
758062,962,,Cherry Creek Rd. & Cloverdale Blvd.,,38.7948814126,-123.0186959555,550,,0,,
757942,75900,,Sebastopol Rd. & West Ave.,,38.43017052,-122.7276876,467,,0,,
757110,02500,,Old Redwood Hwy. & Shiloh Rd.,,38.52200804,-122.7759014,463,,0,,
758011,87600,,Windsor Rd. & Ginny Dr.,,38.54439875,-122.8168942,463,,0,,
757454,30240,,2nd St. W. & Perkins St.,,38.28990258,-122.4615223,470,,0,,
757776,60600,,Hwy. 116 & Cooper Rd.,,38.37920468,-122.7989856,466,,0,,
758076,98400,,Doran Park (Bodega Bay),,38.3062906949,-123.0536697248,479,,0,,
757335,19300,,Mirabel Rd. & Hwy. 116,,38.47435722,-122.8949966,465,,0,,
757469,31200,,5th St. W. & W. Napa,,38.29150198,-122.4681456,470,,0,,
757343,20100,,Graton Rd. & Sonoma Ave.,,38.43675309,-122.8615516,466,,0,,
757205,10600,,Starr Rd. & Entrada,,38.55896779,-122.8261991,463,,0,,
757189,09010,,Geyserville Ave. & Independence Ln.,,38.67912815,-122.8798852,461,,0,,
758080,98800,,Bodega Hwy. & Grandview,,38.3929096727,-122.8772593361,486,,0,,
757370,21100,,Hwy. 12 & Merced Ave.,,38.42110356,-122.7785138,466,,0,,
757757,57300,,Snyder Ln. & Keiser,,38.35708917,-122.6856481,471,,0,,
757829,65000,,Moorland Ave. & Todd Rd.,,38.38782416,-122.7185116,467,,0,,
757174,07810,,Furber Ranch Shopping Center,,38.7844573504,-123.0147266533,460,,0,,
757201,10200,,Old Redwood Hwy. & Eastside Rd.,,38.57782174,-122.8433622,462,,0,,
757098,01850,,Fulton Rd. & Airport Blvd.,,38.51028214,-122.7697278,463,,0,,
758041,90700,,Foxwood Dr.,,38.552464637,-122.8112792034,463,,0,,
757759,57500,,Snyder Ln. & Golf Course Dr.,,38.36648897,-122.6856118,471,,0,,
758006,86800,,DeAnza/Moon Valley MHP (5th St. W. & Emily's Meadow Ct.),,38.28321081,-122.4694655,470,,0,,
757236,13110,,Westwind Blvd. & Airport Blvd.,,38.50902829,-122.7959075,463,,0,,
757755,57100,,Snyder Ln. & R.P. Expressway,,38.34823037,-122.6854454,471,,0,,
758009,87100,,Sonoma Marketplace (Mid-Center Stop),,38.29047059,-122.4624928,470,,0,,
758037,90200,,Brooks Rd. & Foothill Dr.,,38.5566839536,-122.80753241,463,,0,,
757536,36700,,Montgomery Village,,38.44722429,-122.6858981,467,,0,,
757732,54700,,N. McDowell Blvd. & Rainer Ave.,,38.25653481,-122.6386881,472,,0,,
757143,05310,,Dry Creek Rd. & Healdsburg Ave.,,38.62636291,-122.8737646,462,,0,,
757907,72600,,Chase Bank,,38.34833123,-122.7075542,471,,0,,
757845,66700,,Todd Rd. & Standish Ave.,,38.38726903,-122.7226446,467,,0,,
757632,47000,,Petaluma Hill Rd. & East Railroad Ave.,,38.30877965,-122.6665965,471,,0,,
757420,27100,,Glen Ellen (Arnold Dr. & London Ranch Rd.),,38.36137742,-122.5258869,469,,0,,
757904,72310,,Reading Cinemas (on Labath Ave.),,38.346641,-122.72127,471,,0,,
757095,01810,,Mark West Springs Rd. & Old Redwood Hwy.,,38.49658245,-122.7503067,463,,0,,
757191,09200,,Healdsburg Ave. & Alexander Vly Rd.,,38.64983759,-122.8691078,462,,0,,
757272,15300,,Old Redwood Hwy. & Chelsea Dr.,,38.49344113,-122.7439234,463,,0,,
757790,61900,,RP Expressway & Hwy. 101,,38.34818649,-122.7141267,471,,0,,
757742,55700,,Petaluma Hill Rd. & Woodward Ave.,,38.29729696,-122.6663154,471,,0,,
757438,28820,,Hwy. 12 & West Spain St.,,38.29424992,-122.4759461,470,,0,,
757813,63800,,Hwy. 116,,38.37764377,-122.7957035,466,,0,,
757346,20400,,Gravenstein Hwy. & Mills Station Rd.,,38.41304545,-122.8433789,466,,0,,
757510,34310,,Hwy. 12 & Adobe Canyon Rd.,,38.42386501,-122.555625,468,,0,,
757244,13410,,Skylane Blvd. & Aviation Blvd.,,38.51628642,-122.7989604,463,,0,,
757331,19010,,River Rd. & Trenton-Healdsburg Rd.,,38.48802264,-122.8548663,465,,0,,
757597,43700,,Commerce Blvd. & Enterprise Dr.,,38.34450109,-122.7122174,471,,0,,
757888,71040,,Burton Ave. & Adrian Dr.,,38.33166488,-122.6978651,471,,0,,
757227,12100,,Old Redwood Hwy. & Shiloh Rd.,,38.52519074,-122.7790434,463,,0,,
757653,48500,,N. McDowell Blvd. (Petaluma Plaza),,38.25147329,-122.6301351,472,,0,,
757932,74300,,Snyder Ln. & Holly Ave.,,38.36982997,-122.6858966,471,,0,,
757240,13210,,Airport Blvd. & Ordinance Rd.,,38.51108419,-122.8028587,463,,0,,
757300,17310,,Villa Grande,,38.47379244,-123.021535,464,,0,,
758021,88600,,Conde Ln. (Windsor MHP),,38.5395250748,-122.8039342314,463,,0,,
757890,71200,,Southwest Blvd. & Burton Ave.,,38.33983129,-122.7004793,471,,0,,
757955,80200,,Temelec - Arnold Dr. & Watmaugh Rd.,,38.2598051,-122.4828819,470,,0,,
757431,28200,,Hwy. 12 & Lichtenberg Ave.,,38.31690443,-122.483751,470,,0,,
757556,39700,,Hwy. 116 & Guerneville Rd.,,38.45263229,-122.8683234,465,,0,,
757557,39800,,Hwy. 116 & Appian Way,,38.45858978,-122.8742225,465,,0,,
757616,45700,,Old Redwood Hwy. & Hatchery Rd.,,38.28963909,-122.6665872,471,,0,,
757394,25000,,Hwy. 12 & Mountain Hawk,,38.46193293,-122.6425189,468,,0,,
757572,41000,,Santa Rosa Ave. & Court St.,,38.40694343,-122.7136154,467,,0,,
758931,70710,,Burton Ave. & Adrin Dr.,,38.3314061191138,-122.697812318802,471,,0,,
757532,36300,,Mission Blvd. & Hwy. 12,,38.45825507,-122.6738639,467,,0,,
757677,50810,,Old Redwood Hwy. & La Plaza,,38.32710469,-122.7066699,471,,0,,
757691,51720,,Redwood Dr. & R.P. Expressway (Boathouse Sushi),,38.34899059,-122.7167299,471,,0,,
757114,02550,,Hembree Ln. & Cornell St.,,38.5361635,-122.7978742,463,,0,,
757455,30300,,E. Broadway & MacArthur (Ac. Sonoma Vly. H.S.),,38.28495944,-122.4587454,470,,0,,
757716,54000,,Santa Rosa Ave. & Mill St.,,38.43403946,-122.7116827,467,,0,,
757328,18800,,River Rd. & Scenic Rd.,,38.50574801,-122.913842,465,,0,,
757347,20500,,Gravenstein Hwy. & Hurlbut Ave.,,38.40731686,-122.8385117,466,,0,,
757156,06400,,Geyserville Rd. & East of Hwy. 101,,38.72806979,-122.9393669,461,,0,,
758744,84710,,Hermosa Pkwy./ Watmaugh,,38.2600446540139,-122.486344277859,470,,0,,
757425,27600,,Arnold Dr. & Madrone Rd.,,38.33870859,-122.5129367,469,,0,,
757508,34200,,Hwy. 12 & Laurel Ave.,,38.41568853,-122.5474559,468,,0,,
757163,07000,,Cloverdale Blvd. & Church Ln.,,38.78609006,-123.0141114,460,,0,,
757494,32800,,Agua Caliente Rd. & Hwy. 12,,38.3256509,-122.4886709,470,,0,,
757176,08000,,Dutcher Creek Rd. & Hiatt Rd.,,38.77494848,-123.0022061,460,,0,,
757434,28600,,Hwy. 12 & Siesta Way,,38.30825843,-122.478682,470,,0,,
757435,28700,,Hwy. 12 & Encinas,,38.30591416,-122.4778783,470,,0,,
757294,16500,,Healdsburg Ave. & Tenth St.,,38.44366408,-122.717923,467,,0,,
946,94700,,Powell Ave. & Fitch St.,,38.6207664204,-122.8668547121,462,,0,,
757251,13500,,Shiloh Rd. & Skylane Blvd.,,38.52571067,-122.8016708,463,,0,,
758025,89000,,Shiloh Rd. & Conde Ln.,,38.5256802127,-122.7965187411,463,,0,,
757898,72010,,LaBath Ave. & RP Expressway,,38.35062167,-122.7211343,471,,0,,
757463,30720,,Broadway & Leveroni Rd.,,38.2761560315,-122.4604472375,470,,0,,
757268,14900,,Old Redwood Hwy. & Ascot,,38.50312948,-122.757188,463,,0,,
759362,17410,,Hwy. 116 and Bohemian Hwy.,,38.4678683943386,-123.010654449463,464,,0,,
757352,20730,,Bodega Ave. & N. Main St.,,38.402084,-122.824493,466,,0,,
757718,54200,,E. Washington St. & Lakeville St.,,38.23826169,-122.6356492,472,,0,,
936,93600,,Across from Rite Aid,,38.6159256731201,-122.872972101489,462,,0,,
758071,97900,,Duncan's Landing,,38.4011955462,-123.0944557969,482,,0,,
757179,08200,,Asti,,38.76139674,-122.9756806,485,,0,,
757199,10000,,Old Redwood Hwy. & Limerick Ln.,,38.58809557,-122.8493676,462,,0,,
757828,64900,,Todd Rd. & Standish Ave.,,38.38707702,-122.7214575,467,,0,,
757796,62710,,Camino Colegio & East Cotati Ave.,,38.33374242,-122.687626,471,,0,,
757877,70300,,Myrtle Ave. & Hahn,,38.32155322,-122.6928668,471,,0,,
757574,41200,,Santa Rosa Ave. & Northstar Dr.,,38.39874911,-122.713673,467,,0,,
757729,54650,,Sonoma Mtn. Pkwy. & Reisling,,38.26903145,-122.6409865,472,,0,,
757731,54670,,Sonoma Mtn. Pkwy. & Maria Dr.,,38.26824192,-122.6490768,472,,0,,
757739,55400,,N. McDowell Blvd. & Clegg St.,,38.26937392,-122.6602573,472,,0,,
757884,71000,,Southwest Blvd. & Country Club Dr.,,38.34142841,-122.6944266,471,,0,,
757593,43300,,Commerce Blvd. & State Farm Dr.,,38.35809394,-122.7126844,471,,0,,
758047,91300,,Old Redwood Hwy. & Rio Ruso Dr.,,38.5572387865,-122.8203265712,463,,0,,
757182,08500,,Geyserville Ave. & East of Hwy. 101,,38.727993,-122.939468,461,,0,,
757622,46200,,Petaluma Blvd. & Gossage Ave.,,38.25484665,-122.6513943,472,,0,,
757987,85200,,Lakeville Hwy. & S. McDowell Blvd.,,38.2342772,-122.5996816,472,,0,,
757283,15760,,Russell & Ventura (Kaiser Stop),,38.46908844,-122.7244746,467,,0,,
757993,85800,,Lakeville St. & Caufield,,38.23519425,-122.6219756,472,,0,,
757429,28000,,Hwy. 12 & Marin Ave.,,38.32389548,-122.4877528,470,,0,,
757361,20860,,Covert Ln. & Ragle Rd.,,38.40540581,-122.8449809,466,,0,,
757412,26410,,Hwy. 12 & Adobe Canyon Rd.,,38.42407946,-122.5561406,468,,0,,
757580,41900,,Santa Rosa Ave. & Scenic Ave.,,38.37606368,-122.7136121,467,,0,,
758057,955.1,,Cloverdale Blvd. & Clovercrest,,38.813509842,-123.0232068686,550,,0,,
757678,50820,,Old Redwood Hwy. & George St.,,38.32875685,-122.708137,471,,0,,
757192,09300,,Healdsburg Ave. & Parkland Farms Dr.,,38.63881782,-122.8739747,462,,0,,
757909,72710,,Raley's Town Center,,38.34669,-122.7054595,471,,0,,
758033,89800,,Foothill Regional Park,,38.5602856421792,-122.797960615708,463,,0,,
757319,18050,,Neeley Rd. & Hwy. 116,,38.4983537704382,-122.993600534835,464,,0,,
758014,87900,,Windsor Rd. & Reiman Ln.,,38.53643558,-122.8168868,463,,0,,
757897,72000,,RP Expressway & LaBath,,38.3491677228957,-122.721963981823,471,,0,,
757089,01300,,Mendocino Ave. & Fountain Grove Pkwy.,,38.4743317488,-122.7278767873,467,,0,,
757075,00800,,Mendocino Ave. & Dexter St.,,38.45720892,-122.7171263,467,,0,,
757700,52200,,Robert's Lake Rd./ Golf Course Dr.,,38.36432742,-122.7106535,471,,0,,
757703,52600,,Santa Rosa Ave./ Todd Rd.,,38.38750973,-122.713414,467,,0,,
757730,54660,,Sonoma Mtn. Pkwy. & Ely Rd.,,38.2689426,-122.6439137,472,,0,,
757837,65800,,Corby Extension,,38.41450249,-122.7180034,467,,0,,
757481,31750,,Boyes Blvd. & Poplar,,38.31418351,-122.4842927,470,,0,,
757235,13100,,Airport Blvd. & Brickway Blvd.,,38.51119173,-122.7935235,463,,0,,
757458,30510,,2nd St. West & Hwy. 12,,38.29090472,-122.4615479,470,,0,,
757193,09400,,Healdsburg Ave. & Grove St.,,38.63447572,-122.8742113,462,,0,,
757628,46600,,Petaluma Hill Rd. & East Cotati Ave.,,38.33516647,-122.666865,471,,0,,
757720,54220,,Petaluma Fairgrounds Park & Ride,,38.24255811,-122.6313492,472,,0,,
757646,47950,,Rainier Ave. & Acadia Dr.,,38.26202381,-122.6301829,472,,0,,
757207,10800,,Starr Rd. & Coleen Dr.,,38.55366945,-122.8261566,463,,0,,
757876,70200,,Myrtle Ave. & Veronda Way,,38.32151504,-122.6975935,471,,0,,
757142,05300,,Healdsburg Ave. & Dry Creek Rd.,,38.62354419,-122.8725411,462,,0,,
757173,07800,,Cloverdale Blvd & Treadway,,38.7843695,-123.0129716,460,,0,,
757589,42900,,Redwood Dr. & Business Park Dr.,,38.35440948,-122.7137076,471,,0,,
771429,20811,,Burbank Heights,,38.3964699420354,-122.833120241547,466,,0,,
757894,71600,,Rohnert Park Library,,38.34853603,-122.7038554,471,,0,,
757297,17100,,Camp Meeker (Bohemian Hwy. & Van Ness Ave.),,38.42422487,-122.9566357,464,,0,,
757418,26910,,Hwy. 12 & Madrone Rd.,,38.34334414,-122.4974969,469,,0,,
757441,29100,,Verano Ave. & Willow St.,,38.30235123,-122.4853811,470,,0,,
757511,34400,,Hwy. 12 & Lawndale Rd.,,38.42990814,-122.5647455,468,,0,,
757945,76200,,Sebastopol Rd. & Stony Point Rd.,,38.42688558,-122.7426622,467,,0,,
757882,70800,,Rancho Cotate High School,,38.33968746,-122.6859462,471,,0,,
757512,34410,,Hwy. 12 & Pythian Rd.,,38.43634794,-122.5800496,468,,0,,
757933,74400,,Snyder Ln. & Golf Course Dr.,,38.36693261,-122.6858995,471,,0,,
757943,76000,,Sebastopol Rd. & Burbank Rd.,,38.42858803,-122.7343003,467,,0,,
757091,01500,,Old Redwood Hwy. (Kaiser Stein Bldg.),,38.48272423,-122.7344032,467,,0,,
757101,01880,,River Rd. & Trenton-Healdsburg Rd.,,38.48847958,-122.8553353,465,,0,,
757316,18020,,Beach/ Orchard,,38.4848257622287,-123.010773462102,464,,0,,
757087,01100,,Mendocino Ave. & Chanate Rd.,,38.46559823,-122.7195326,467,,0,,
757399,25410,,Hwy. 12 & Oakmont Dr.,,38.44490605,-122.6046172,468,,0,,
945,94500,,Alliance Medical Center,,38.6267718658668,-122.865088660987,462,,0,,
757284,15770,,County Admin. Center (Ventura Ave.),,38.466534,-122.724426,467,,0,,
757575,41300,,Santa Rosa Ave. & East Robles Ave.,,38.39552828,-122.7136883,467,,0,,
758056,955,,Cloverdale Blvd. & School St.,,38.8107048396,-123.0208940494,550,,0,,
931,93300,,First St. & Mason St.,,38.6080522554972,-122.86185554262,462,,0,,
757770,60000,,Sebastopol Post Office,,38.40065804,-122.8235102,466,,0,,
757954,80100,,Schellville Hwy. 116 & 121,,38.23595679,-122.4613023,470,,0,,
757612,45300,,Old Redwood Hwy. & Minnesota Ave.,,38.30641002,-122.686891,471,,0,,
757161,06800,,Theresa Dr.,,38.76796009,-122.9943246,460,,0,,
757791,62300,,Commerce Blvd. & Wilford Ln.,,38.33578352,-122.712376,471,,0,,
757645,47940,,Sonoma Mtn. Pkwy. (Ac. Petaluma SRJC),,38.26661921,-122.6371181,472,,0,,
757414,26600,,Hwy. 12 & Laurel Ave.,,38.41519905,-122.5472205,468,,0,,
758028,89300,,Hembree Ln. & Leaf Haven Ln.,,38.5458569361,-122.797855764,463,,0,,
757486,32100,,Hwy. 12 & Encinas,,38.30613486,-122.4777293,470,,0,,
758036,90100,,Brooks Rd. & Jessica Dr.,,38.5600178426,-122.8075419474,463,,0,,
757983,84800,,Watmaugh Rd. & Bear Flag Rd.,,38.25811141,-122.4911749,470,,0,,
757699,52100,,Commerce Blvd. & Utility Ct.,,38.36164058,-122.7118573,471,,0,,
757341,19900,,Ross Rd. & Kamuela Rd.,,38.44178284,-122.8706797,466,,0,,
757204,10500,,Old Redwood Hwy. & Starr Rd.,,38.56420861,-122.8280399,463,,0,,
757523,35400,,Hwy. 12 & Melita Rd. (West End),,38.45615899,-122.628185,468,,0,,
758024,88900,,Conde Ln. & American Way,,38.5296553488,-122.798234808,463,,0,,
757581,42000,,Robert's Lake Rd. / Golf Course Dr.,,38.36359305,-122.7107047,471,,0,,
757410,26320,,Hwy. 12 & Pythian Rd.,,38.43587432,-122.5794859,468,,0,,
757080,01030,,County Admin. Center (Ventura Ave.),,38.46654093,-122.7242188,467,,0,,
757324,18500,,River Rd. & Odd Fellows Park Rd.,,38.51024692,-122.9664692,464,,0,,
757127,03700,,Starr Rd. & Buckingham Dr.,,38.54878559,-122.8259323,463,,0,,
757744,55900,,Petaluma Hill Rd. & Dutch Ln.,,38.30413233,-122.6663911,471,,0,,
757177,08100,,Theresa Dr. & Hwy. 101,,38.76766068,-122.9945439,460,,0,,
757998,86300,,Frates Rd. & Lakeville Circle,,38.2378757,-122.590596,472,,0,,
757132,04300,,Old Redwood Hwy. & Starr Rd.,,38.56461423,-122.8283657,463,,0,,
757281,15740,,Range Ave. & Russel Ave.,,38.46962622,-122.7324752,467,,0,,
757357,20820,,Bodega Ave. & Virginia Ave.,,38.39821811,-122.8344564,466,,0,,
757619,46000,,Petaluma Blvd. N. & Stony Pt. Rd.,,38.26866632,-122.6708947,472,,0,,
757962,82200,,Boyes Blvd. & Spring St.,,38.31404129,-122.4852375,470,,0,,
757832,65300,,Moorland Ave. & Gio Dr.,,38.39846152,-122.7184614,467,,0,,
757372,21300,,Sebastopol Rd. & Doubles Dr.,,38.4252112,-122.7616723,467,,0,,
757825,64600,,W. Robles Ave. & Standish Ave.,,38.39436797,-122.7240261,467,,0,,
757099,01860,,River Rd. & Fulton Rd.,,38.49663884,-122.7714459,463,,0,,
757354,20750,,Wilton Ave. & Florence Ave.,,38.40199041,-122.828764,466,,0,,
757767,58300,,East Cotati Ave. & Sunflower Dr.,,38.33267251,-122.6904413,471,,0,,
758046,91200,,Old Redwood Hwy. & Miller Ln.,,38.5588570249,-122.8216374225,463,,0,,
757211,11110,,Windsor Depot,,38.54755278,-122.8168687,463,,0,,
757638,47600,,McDowell Blvd. & Clegg St.,,38.26900206,-122.6602084,472,,0,,
757280,15730,,Range Ave. & State Farm Dr.,,38.46655536,-122.732523,467,,0,,
757183,08600,,Geyserville Ave. & Canyon Rd.,,38.71433341,-122.9173075,461,,0,,
757545,38800,,Laguna Park Way & Sebastopol Transit Hub,,38.40412271,-122.8236151,466,,0,,
757868,69300,,Hwy. 116 & Riverside Dr.,,38.49236103,-123.0152016,464,,0,,
757363,20880,,Lucky's,,38.40770957,-122.8399498,466,,0,,
761115,77700,,Graton Resort (inside parking lot),,38.3598975108336,-122.723891812209,471,,0,,
757351,20720,,North Main St. & Wilton Ave.,,38.403637,-122.825272,466,,0,,
757697,51930,,State Farm Dr. & Commerce Blvd.,,38.3574955106094,-122.712365984917,471,,0,,
757208,10900,,Starr Rd. & Buckingham Dr.,,38.54878039,-122.8261309,463,,0,,
757491,32600,,Hwy. 12 & Mountain Ave.,,38.31973723,-122.4857874,470,,0,,
758072,98000,,Portuguese Beach,,38.3777562918,-123.0798332274,479,,0,,
757579,41800,,Santa Rosa Ave. & Mountain View Ave.,,38.38035816,-122.7136211,467,,0,,
757349,20700,,Healdsburg Ave. & N. Main St. (Safeway),,38.40517849,-122.8269352,466,,0,,
757844,66500,,Moorland Ave. & Todd Rd.,,38.38774971,-122.7186006,467,,0,,
757915,73400,,Country Club/ Golf Course,,38.36185722,-122.6943612,471,,0,,
757630,46800,,Petaluma Hill Rd. & Valley House Dr.,,38.32127903,-122.6669116,471,,0,,
757485,32010,,Hwy. 12 & Donald St.,,38.30491479,-122.4773573,470,,0,,
757683,51100,,Adrian & Southwest,,38.33582356,-122.7050337,471,,0,,
757771,60100,,South Main St. & Palm Ave.,,38.3960519,-122.8210083,466,,0,,
757585,42800,,Redwood Dr. & Golf Course Dr.,,38.35929008,-122.7137018,471,,0,,
757959,81800,,Maxwell Village Shopping Center (inside) ,,38.2996411,-122.4766137,470,,0,,
757531,36200,,Hwy. 12 & Cardinal Way,,38.46099626,-122.671099,467,,0,,
757707,53000,,Santa Rosa Ave. & Castro Ct,,38.39919208,-122.7133464,467,,0,,
757476,31700,,Bay St./Verano Ave. (ac. El Verano P.O.),,38.30051707,-122.4872693,470,,0,,
758040,90600,,Los Amigos Rd. & Foxwood Dr.,,38.5502759591,-122.8107930853,463,,0,,
757944,76100,,Sebastopol Rd. & Hampton Way,,38.42767581,-122.7381264,467,,0,,
757883,70900,,Credo High School,,38.3406575,-122.6924422,471,,0,,
757910,72720,,State Farm Dr. & Enterprise Dr.,,38.34525565,-122.7043932,471,,0,,
757505,33900,,Hwy. 12 & Sylvia Dr.,,38.38325604,-122.5166252,469,,0,,
757496,33000,,Agua Caliente Rd. & Las Flores Dr,,38.32406564,-122.4920952,470,,0,,
757719,54210,,E. Washington St. & Vallejo St.,,38.24069902,-122.6335687,472,,0,,
757238,13130,,N. Laughlin Rd. & Copperhill Parkway,,38.50908955,-122.8001925,463,,0,,
942,94200,,Bridle Path & Spur Ridge Lane,,38.6412249613223,-122.867511899267,462,,0,,
757659,49200,,Petaluma Blvd. & Btwn. Cherry&Magnolia,,38.24289931,-122.6440597,472,,0,,
757631,46900,,Petaluma Hill Rd. & East Railroad Ave.,,38.31399225,-122.6668043,471,,0,,
758063,963,,Cherry Creek Rd. & Foothill Blvd.,,38.7947326773,-123.0207055739,550,,0,,
758052,91800,,Johnson St. & Bell Rd.,,38.5464958097,-122.8134593287,463,,0,,
757416,26800,,Hwy. 12 & Nuns Canyon Rd.,,38.38835615,-122.5224866,469,,0,,
757540,37100,,3rd St. & D St.,,38.4407383,-122.7111752,467,,0,,
757180,08300,,Asti Rd. & Washington School Rd.,,38.75611211,-122.9712242,461,,0,,
757980,84620,,Schellville  - Hwy. 116 & 121,,38.23591427,-122.4614861,470,,0,,
757474,31500,,Riverside Dr. & Petaluma Ave.,,38.29473063,-122.4781539,470,,0,,
757140,05100,,Healdsburg Plaza,,38.61068829,-122.870491,462,,0,,
757806,63100,,Hwy. 116 & Stony Point Rd.,,38.3347597951,-122.7393544895,471,,0,,
757498,33200,,Arnold Dr. & Madrone Rd.,,38.33942029,-122.5129368,469,,0,,
757740,55500,,N. McDowell Blvd. & Scott St.,,38.2725157454398,-122.663713674413,472,,0,,
757823,64510,,Laguna Park Way & Sebastopol Transit Hub,,38.40438795,-122.8230619,466,,0,,
757292,16300,,Mendocino Ave. & Ridgeway Ave.,,38.45095525,-122.717669,467,,0,,
757590,43000,,Redwood Dr. & RP Expressway,,38.3524656,-122.7149946,471,,0,,
757864,68910,,Guerneville (B of A),,38.5020344,-122.9998986,464,,0,,
757797,62720,,Camino Colegio & Magnolia,,38.32851942,-122.6866302,471,,0,,
757665,49700,,Old Redwood Hwy. & McDowell Blvd.,,38.27630122,-122.6689325,472,,0,,
757704,52700,,Santa Rosa Ave. & Todd Rd.,,38.38958579,-122.7133909,467,,0,,
757754,56900,,Snyder Ln. & Southwest Blvd.,,38.3403001,-122.6853028,471,,0,,
758003,86700,,Temelec Circle & Almeria Dr.,,38.26737975,-122.4905274,470,,0,,
757144,05320,,Grove St. & Chaquita Rd.,,38.63316713,-122.8766603,462,,0,,
757402,25700,,Oakmont Dr. & Hillsdale Dr.,,38.43712803,-122.5994973,468,,0,,
757709,53200,,Santa Rosa Ave. & Court Rd.,,38.40753712,-122.7132943,467,,0,,
757288,15900,,Mendocino Ave. & Chanate Rd.,,38.46465344,-122.7193304,467,,0,,
757872,69700,,Main St. & Starett Hill Rd.,,38.464208,-123.0106893,464,,0,,
757386,24200,,Montgomery Dr. & Summerfield Dr.,,38.45429074,-122.672257,467,,0,,
757728,54640,,Sonoma Mtn. Pkwy. (Petaluma SRJC),,38.26737704,-122.6378794,472,,0,,
757487,32200,,Fiesta Plaza,,38.30843555,-122.4784708,470,,0,,
757917,73600,,Golf Course Dr. & Halycon,,38.365127,-122.691541,471,,0,,
757570,40800,,Santa Rosa Ave. & Hearn Ave.,,38.41120177,-122.7136356,467,,0,,
757301,17320,,Moscow Rd. & West St.,,38.47298178,-123.0248064,464,,0,,
757550,39120,,Gravenstein Hwy. & Occidental Rd.,,38.4258548195446,-122.84814690741,466,,0,,
757548,39100,,Healdsburg Ave. & Hurlbut Ave.,,38.40735362,-122.8382132,466,,0,,
758088,99600,,Moscow Rd. & Main St.,,38.4646059177,-123.0105785732,464,,0,,
757801,62760,,Bodway Pkwy./ Middlebrook Way,,38.33205724,-122.6762095,471,,0,,
757276,15610,,Mendocino Ave. & Bicentennial Way,,38.47245321,-122.7257566,467,,0,,
757994,85900,,Lakeville Hwy. & Baywood Dr.,,38.23276528,-122.6152987,472,,0,,
757214,11400,,Old Redwood Hwy. & Alden Ln.,,38.54313685,-122.8001706,463,,0,,
757985,85000,,Frates Rd. & Lakeville Circle,,38.23782193,-122.5909259,472,,0,,
757267,14800,,Old Redwood Hwy. & Deerwood Dr.,,38.50543389,-122.7590062,463,,0,,
757848,67000,,W. Robles Ave. & Standish Ave.,,38.39448975,-122.7246297,467,,0,,
757442,29200,,El Verano (Verano Ave. & Bay St.),,38.30155671,-122.4876839,470,,0,,
757377,22000,,Sebastopol Rd. & West Ave.,,38.42924547,-122.7306624,467,,0,,
757453,30230,,2nd St. W. & Andrieux (Sonoma Medical Ctr.),,38.28804794,-122.4618134,470,,0,,
757533,36400,,Montgomery Dr. & Summerfield Dr.,,38.45454668,-122.6724547,467,,0,,
757360,20850,,Covert Ln. & Pleasant Hill,,38.40539476,-122.8408128,466,,0,,
757184,08700,,Geyserville Ave. & Geysers Ridge Rd.,,38.71080318,-122.9120935,461,,0,,
757661,49400,,Petaluma Blvd. & Gossage Ave.,,38.25549211,-122.6517316,472,,0,,
759022,57670,,Country Club Dr. & Golf Course Dr.,,38.36178548,-122.6945964,471,,0,,
757409,26310,,Los Guilicos,,38.44005808,-122.5806225,468,,0,,
757468,31100,,5th St. West & Andrieux St.,,38.28848692,-122.4686598,470,,0,,
757167,07310,,Cloverdale Depot,,38.79806417,-123.011823,460,,0,,
757712,53500,,Santa Rosa Ave. & Colgan Ave. (Market Place),,38.41917727,-122.7133076,467,,0,,
757967,82700,,FAHA (inside driveway),,38.3031127,-122.4806414,470,,0,,
944,94400,,Prentice Ave. & March Ave.,,38.6267861847,-122.8666548598,462,,0,,
757387,24300,,Mission Blvd. & Hwy. 12,,38.45828634,-122.6730349,467,,0,,
757871,69600,,Moscow Rd. & Main St.,,38.46488131,-123.0107238,464,,0,,
757389,24500,,Hwy. 12 & Middle Rincon Rd.,,38.46358896,-122.6654464,467,,0,,
758068,97600,,Duncans Mills (Westbound),,38.4531187971,-123.0542292445,464,,0,,
757637,47500,,McDowell Blvd. & Scott St.,,38.2722420230384,-122.663721181754,472,,0,,
757566,40400,,Santa Rosa Ave. & Flower St.,,38.42394662,-122.7136529,467,,0,,
930,93200,,Rivers Bend Club House,Flag Stop,38.6099007443,-122.8465710807,462,,0,,
757290,16100,,Mendocino Ave. & Clement Ave.,,38.45925799,-122.7173229,467,,0,,
757764,58000,,Petaluma Hill Rd. & Aston Ave.,,38.42426169,-122.70829,467,,0,,
757830,65100,,Moorland Ave. & btwn. Todd/W. Robles,,38.391327,-122.7184342,467,,0,,
758010,87500,,Windsor Depot (Town Green),,38.5477930573,-122.8170393356,463,,0,,
758069,97700,,Jenner,,38.4494169538,-123.1149881667,482,,0,,
757775,60500,,Hwy. 116 & Bloomfield Rd.,,38.38100554,-122.805693,466,,0,,
757635,47300,,Petaluma Hill Rd. & Old Redwood Hwy.,,38.29658017,-122.6664842,471,,0,,
757807,63200,,Hwy. 116 & Woodworth Rd.,,38.34937647,-122.7627897,471,,0,,
757385,24100,,Montgomery Dr. & Jacqueline,,38.45220904,-122.6747247,467,,0,,
757232,12600,,Old Redwood Hwy. & Airport Blvd,,38.51273422,-122.7657755,463,,0,,
757850,67600,,Mirabel Rd. & Hwy. 116,,38.47437824,-122.8947608,465,,0,,
757169,07410,,King Circle 1 & E. 3rd St.,,38.8102373547,-123.0156394171,460,,0,,
757107,02200,,Old Redwood Hwy. & Airport Blvd,,38.51180039,-122.7641909,463,,0,,
757562,40230,,Petaluma Hill Rd. & Kawana Springs Rd.,,38.41678964,-122.7044377,467,,0,,
758045,91100,,Arata Ln. & Old Redwood Hwy.,,38.561875076,-122.8211461029,463,,0,,
757999,86400,,Adobe Rd. & Stage Gulch Rd.,,38.23621691,-122.5269582,473,,0,,
757225,12030,,Shiloh Center & Wal-Mart (McFarlane),,38.527721,-122.788651,463,,0,,
757859,68500,,Rio Nido,,38.51934255,-122.9793565,464,,0,,
757913,73200,,Country Club Dr. & Emily,,38.35179837,-122.695478,471,,0,,
757644,47930,,Sonoma Mtn. Pkwy & Reisling,,38.26843848,-122.6404032,472,,0,,
757279,15720,,Range Ave. & @ Paulin Creek,,38.46322967,-122.7325171,467,,0,,
757852,67800,,Mirabel Rd. & Trenton Rd.,,38.48972103,-122.8949689,465,,0,,
758053,91900,,McClelland Dr. & Honsa Ave.,,38.5483181172,-122.8145395341,463,,0,,
757596,43600,,Commerce Blvd. & R.P. Expressway,,38.34730697,-122.7097547,471,,0,,
757816,64100,,Fairfield Inn,,38.38860193,-122.8145178,466,,0,,
940,94000,,Parkland Farms,,38.6377489406,-122.8730207968,462,,0,,
757202,10300,,Old Redwood Hwy. & Eastside Rd.,,38.57460008,-122.8419131,462,,0,,
757869,69400,,Hwy. 116 & Ridgecrest Dr.,,38.47780821,-122.9984552,464,,0,,
757178,08110,,Asti Rd. & Theresa Dr.,,38.76610079,-122.9919318,460,,0,,
758085,99300,,Moscow Rd. & Casini Ranch,,38.4602232586,-123.0449767043,464,,0,,
757380,23600,,Third St. & E St.,,38.441212,-122.7098719,467,,0,,
757401,25600,,Oakmont Dr. & Laurel Leaf Pl.,,38.43987843,-122.6033053,468,,0,,
757565,40300,,Santa Rosa Ave. & Barham Ave.,,38.42739573,-122.7132341,467,,0,,
757456,30400,,Broadway & Patten St.,,38.28984489,-122.4580508,470,,0,,
757847,66900,,Standish Ave. & W. Robles Ave.,,38.39384828,-122.723046,467,,0,,
757886,71020,,Burton Ave. & Bernice Ave.,,38.33711694,-122.6984231,471,,0,,
757834,65500,,Corby Ave. & Bellevue Ave.,,38.40764857,-122.7163375,467,,0,,
943,94300,,March Ave. & Healdsburg Ave.,,38.6261601152027,-122.872040040807,462,,0,,
757210,11100,,Windsor River Rd. (Windsor Depot),,38.54713147,-122.8162381,463,,0,,
757663,49510,,Petaluma Blvd. & Metz Ln.,,38.26448036,-122.667944,472,,0,,
757384,24000,,Montgomery Dr. & Yulupa Ave.,,38.44952402,-122.6789718,467,,0,,
757484,32000,,Hwy. 12 & Verano Ave.,,38.30315661,-122.4763818,470,,0,,
757430,28100,,Hwy. 12 & Mountain Ave.,,38.31962053,-122.4859386,470,,0,,
757650,48200,,McDowell Blvd. & Dynamic St.,,38.25817813,-122.6419926,472,,0,,
757576,41400,,Santa Rosa Ave. & East Robles Ave.,,38.39285094,-122.713726,467,,0,,
757355,20800,,Burbank Heights,,38.39733204,-122.8335403,466,,0,,
757774,60400,,Hwy. 116 & Sparkes Rd.,,38.38432003,-122.8121596,466,,0,,
757096,01830,,River Rd. & West of Hwy. 101,,38.49650345,-122.7611762,463,,0,,
757594,43400,,Commerce Blvd. & Professional Center Dr.,,38.35390495,-122.7125357,471,,0,,
757275,15600,,Mendocino Ave. & Fountain Grove Pkwy.,,38.47378954,-122.7274625,467,,0,,
757934,74500,,Snyder Ln. & Eleanor St.,,38.36159747,-122.6858496,471,,0,,
757793,62500,,Old Redwood Hwy. & William Dr.,,38.32848395,-122.7082086,471,,0,,
757130,04000,,Starr Rd. & Gumview Rd.,,38.55636434,-122.8259637,463,,0,,
757624,46310,,Petaluma Blvd. & Magnolia Ave.,,38.244208,-122.644692,472,,0,,
757938,74900,,Snyder Ln. & RP Express Way,,38.34787819,-122.685632,471,,0,,
757687,51500,,Commerce Blvd. & Arlen Dr.,,38.34077442,-122.7122323,471,,0,,
757623,46300,,Petaluma Blvd. & Shasta Ln.,,38.24694506,-122.6454322,472,,0,,
757693,51800,,Commerce Blvd. & RP Expressway,,38.34991393,-122.7094897,471,,0,,
757084,01070,,Range Ave. & State Farm Dr.,,38.46558338,-122.7327481,467,,0,,
758019,88400,,Cameron Dr. & Bell Rd.,,38.5340263406,-122.8030558458,463,,0,,
757400,25500,,Oakmont Dr. & White Oak,,38.44156298,-122.6050402,468,,0,,
758054,952,,North Main St. & Fourth St.,,38.8085350737,-123.0178231563,550,,0,,
757446,29700,,Hwy. 12 & Riverside Dr.,,38.29347439,-122.4745729,470,,0,,
757259,14400,,Airport Blvd. & Aviation Blvd.,,38.51096137,-122.7804182,463,,0,,
758066,973,,Blair St. & Clark Ave.,,38.7979634556,-123.0146394256,550,,0,,
757125,03500,,Windsor River Rd. (Windsor Depot),,38.54732459,-122.8161523,463,,0,,
757465,30800,,W. MacArthur & Broadway (Ac. Sonoma Vly. H.S.),,38.28492627,-122.4599472,470,,0,,
757108,02300,,Old Redwood Hwy. & Fulton Rd.,,38.51566174,-122.7692227,463,,0,,
757382,23800,,Montgomery Dr. & Shortt Rd.,,38.44542542,-122.6917853,467,,0,,
758081,98900,,Freestone (Westbound),,38.372903362,-122.9109189562,486,,0,,
757083,01060,,Range Ave. & Russel Ave.,,38.46832138,-122.7327758,467,,0,,
757159,06700,,Asti,,38.76157999,-122.9754915,485,,0,,
757432,28300,,Boyes Hot Springs,,38.31351196,-122.4814506,470,,0,,
757367,21020,,Irwin Ln. & Occidental Rd.,,38.42283706,-122.7879079,466,,0,,
757353,20740,,Senior Center,,38.40257205,-122.8260864,466,,0,,
926,92800,,Fitch Mountain Terrace,,38.6103300303,-122.8565591492,462,,0,,
758079,98700,,Bodega Hwy. & Sexton Rd.,,38.3914389175,-122.8795691109,486,,0,,
757317,18030,,Orchard Ave. & Montesano Ave.,,38.4873899576644,-123.012934096048,464,,0,,
757247,13440,,Windsor Rd.,,38.53541264,-122.8166168,463,,0,,
757475,31600,,Riverside Dr. & Solano Ave.,,38.29658959,-122.4807293,470,,0,,
757588,42830,,LaBath Ave. & Carlson Ct,,38.3502491,-122.7212875,471,,0,,
757278,15710,,Range Ave. & Steele Ln.,,38.46076203,-122.7323834,467,,0,,
757397,25300,,Hwy. 12 & Melita Rd. (West End),,38.45558113,-122.627412,468,,0,,
757555,39600,,Green Valley Rd. & Hicks Rd.,,38.44560393,-122.8677273,465,,0,,
757866,69100,,Hwy. 116 (Guerneville Park & Ride),,38.50204813,-123.0030418,464,,0,,
757273,15400,,Old Redwood Hwy. & Cardinal Newman HS,,38.49092684,-122.740733,463,,0,,
757748,56300,,Petaluma Hill Rd. & Robert's Rd.,,38.32940918,-122.6666285,471,,0,,
757188,09000,,Geyserville Ave. &,,38.69305168,-122.8849537,461,,0,,
757809,63400,,Hwy. 116 & Hessel Rd.,,38.36347877,-122.7793004,466,,0,,
757919,73710,,Country Club Dr. & Hudis,,38.36464409,-122.6961639,471,,0,,
757393,24900,,Hwy. 12 & Melita Rd.,,38.46463355,-122.6510306,468,,0,,
757518,35000,,Oakmont Dr. & Deerfield Circle,,38.43490589,-122.5968417,468,,0,,
757329,18900,,River Rd. & Rio Vista,,38.49962306,-122.9040428,465,,0,,
757359,20840,,Pleasant Hill Ave. & Valentine Ave.,,38.40207898,-122.8397814,466,,0,,
757838,65900,,Corby Ave. & Hearn Ave.,,38.41129472,-122.7164838,467,,0,,
757213,11300,,Old Redwood Hwy. & Lakewood Dr.,,38.54596715,-122.8060887,463,,0,,
757197,09800,,Healdsburg Ave. & Matheson,,38.60955874,-122.8703934,462,,0,,
757428,27900,,Agua Caliente Rd. & Hwy. 12,,38.32550862,-122.4885654,470,,0,,
758012,87700,,Windsor Rd.,,38.54156225,-122.8169119,463,,0,,
759008,99999,,Snyder Lane & Holly Ave.,,38.37064393,-122.6856592,471,,0,,
757499,33300,,Arnold Dr. & Sonoma Glen Circle,,38.3420101,-122.5135722,469,,0,,
757827,64800,,Standish Ave. & Sutton Pl.,,38.39081543,-122.7233273,467,,0,,
757840,66100,,Moorland Ave. & Bellevue Ave.,,38.40087418,-122.7186316,467,,0,,
758075,98300,,Bodega Bay Post Office (Eastbound),,38.3242009539,-123.0390595266,479,,0,,
757520,35200,,Oakmont Dr. & White Oak,,38.44126442,-122.6043073,468,,0,,
757766,58200,,East Cotati Ave. & Camino Colegio Ave.,,38.33392131,-122.6887091,471,,0,,
757421,27200,,Arnold Dr.,,38.35416289,-122.5244585,469,,0,,
757860,68600,,River Rd. & Foothill Blvd.,,38.51501579,-122.9833127,464,,0,,
757088,01200,,Mendocino Ave. & Bicentennial Way,,38.4710363,-122.7233788,467,,0,,
757315,18010,,Guernewood Rd. & Neeley Rd.,,38.4988937846836,-123.00215473288,464,,0,,
757995,86000,,Lakeville Hwy. & Marina,,38.23307839,-122.6099946,472,,0,,
757792,62400,,Old Redwood Hwy. & Commerce Blvd.,,38.33175672,-122.7112888,471,,0,,
757705,52800,,Santa Rosa Ave. & East Robles Ave.,,38.39364653,-122.7134059,467,,0,,
757881,70700,,Lancaster & Lincoln Ave.,,38.32864258,-122.6944695,471,,0,,
757342,20000,,Graton,,38.43732792,-122.8699724,466,,0,,
757170,07500,,Cloverdale Blvd. & Healdsburg Ave.,,38.800529,-123.01667,460,,0,,
758086,99400,,Moscow Rd. & West St.,,38.4729395946,-123.0247554359,464,,0,,
757804,62900,,East Cotati Ave. & Snyder/Maurice,,38.33599767,-122.6839518,471,,0,,
757516,34800,,Pythian Rd. & Valley Oaks,,38.43084343,-122.5867573,468,,0,,
758070,97800,,Arch View (Blind Beach),,38.4406911136,-123.1264984029,482,,0,,
757449,30000,,Fifth St. West & Andrieux St.,,38.28945934,-122.4687259,470,,0,,
757136,04700,,Old Redwood Hwy. & Btwn. Eastside/Limerick,,38.5828075,-122.8460282,462,,0,,
941,94100,,Parkland Farms Blvd. & Arbor Way,,38.6399447267541,-122.867042917654,462,,0,,
757131,04200,,Starr Rd. & Twin Oaks Ln.,,38.55979085,-122.8259572,463,,0,,
758048,91400,,Old Redwood Hwy. & Godfrey Dr.,,38.5540346677,-122.8177997038,463,,0,,
757379,22400,,Railroad St. & Hazel Rd.,,38.43451466,-122.7193364,467,,0,,
757640,47800,,McDowell Blvd. & Corona Rd.,,38.26535263,-122.6547387,472,,0,,
757812,63700,,Hwy. 116 & Old Gravenstein Hwy.,,38.37562743,-122.7929182,466,,0,,
757863,68900,,River Rd. & Armstrong Woods Rd.,,38.50217629,-122.9968357,464,,0,,
760094,17420,,Hwy. 116 (River View Inn),,38.4701389757834,-123.007271227964,464,,0,,
757128,03800,,Starr Rd. & Stellar Ln.,,38.55126375,-122.8259735,463,,0,,
757457,30500,,Sonoma Plaza,,38.29226799,-122.4580372,470,,0,,
757473,31420,,Hwy. 12 & Ramon St.,,38.2987839,-122.475068,470,,0,,
757229,12300,,Old Redwood Hwy. & Plymouth Way,,38.5200498921939,-122.774302810173,463,,0,,
757785,61400,,Hwy. 116 & Alder Ave.,,38.3322,-122.720733,471,,0,,
757956,81500,,Sonoma Marketplace (Whole Foods),,38.29158153,-122.4622362,470,,0,,
757905,72320,,Laguna Dr. & LaBath Ave.,,38.345528,-122.719175,471,,0,,
757146,05500,,Healdsburg Ave. & Foss Creek (driveway),,38.63323783,-122.8733428,462,,0,,
757321,18200,,River Rd. & Bonita Ave.,,38.507133,-122.989212,464,,0,,
757901,72100,,RP Expressway & LaBath,,38.349149,-122.723618,471,,0,,
757873,69800,,Camp Meeker (Bohemian Hwy. & Market),,38.425193014,-122.9592916901,464,,0,,
757892,71400,,Country Club Dr. & Copeland Creek,,38.34303679,-122.6949625,471,,0,,
757817,64200,,Hwy. 116 & Fircrest Ave.,,38.39100179,-122.8165687,466,,0,,
757768,58400,,East Cotati Ave. & Ryan Lane,,38.3314364213873,-122.69293384523,471,,0,,
757958,81700,,W. Napa St. & 5th St. W. (ac. Safeway),,38.29293888,-122.4671215,470,,0,,
757746,56100,,Petluma Hill Rd. & East Railroad Ave.,,38.31459884,-122.6665737,471,,0,,
757162,06900,,Cloverdale Blvd. & Sandholm Dr.,,38.78197143,-123.0099086,460,,0,,
758000,86500,,Watmaugh Rd. & Bear Flag Rd.,,38.25812983,-122.490781,470,,0,,
757139,05000,,Healdsburg Ave. & Mill St.,,38.60757937,-122.8694918,462,,0,,
757916,73500,,Golf Course Dr. & Hacienda Way,,38.362671,-122.693136,471,,0,,
757243,13400,,Skylane Blvd. & Airport Blvd.,,38.51230938,-122.7994828,463,,0,,
757443,29300,,Grove St. & Bay St.,,38.29954296,-122.4864877,470,,0,,
757492,32700,,Hwy. 12 & Marin Ave.,,38.3242864,-122.4876958,470,,0,,
757113,02540,,Hembree Ln. & Wilson Ln.,,38.53313588,-122.7962341,463,,0,,
757289,16000,,Mendocino Ave. & Schurman Dr.,,38.4628473,-122.7182234,467,,0,,
757148,05700,,Healdsburg Ave. & Alexander Valley Rd.,,38.65064361,-122.8692471,462,,0,,
758031,89600,,Hembree Ln. & Vinecrest Rd.,,38.5552066301,-122.7979785328,463,,0,,
757814,63900,,Hwy. 116 & Bloomfield Rd.,,38.38121974,-122.8057686,466,,0,,
757069,00200,,Mendocino Ave. & Seventh St.,,38.44256366,-122.7154422,467,,0,,
758016,88100,,Windsor Rd. & Mitchell Ln.,,38.5326514269,-122.8135263103,463,,0,,
759019,57620,,Holly Ave. & Hawthorne Cr.,,38.37072267,-122.6907071,471,,0,,
757686,51400,,Arlen/Santa Alicia,,38.33998342,-122.7098338,471,,0,,
757116,02600,,Old Redwood Hwy. & Shiloh Rd.,,38.52634997,-122.7795453,463,,0,,
933,92700,,Senior Center,,38.6106643201,-122.8690835745,462,,0,,
757076,00900,,Mendocino Ave. & Silva Ave.,,38.45851776,-122.7170832,467,,0,,
757482,31800,,Verano Ave. & Willow St.,,38.3023881,-122.4846345,470,,0,,
757528,35900,,Hwy. 12 & Boas Dr.,,38.46518097,-122.6583649,467,,0,,
757323,18400,,Rio Nido,,38.51940815,-122.9778392,464,,0,,
757534,36500,,Montgomery Dr. & Jacqueline,,38.45201926,-122.6754025,467,,0,,
757141,05200,,Healdsburg Ave. & Powell Ave.,,38.62110029,-122.8723508,462,,0,,
757713,53600,,Santa Rosa Ave. & Colgan Ave.,,38.42172335,-122.713345,467,,0,,
757684,51200,,Adrian Dr. & Adrian Ct.,,38.33776349,-122.7053861,471,,0,,
757311,17700,,Hwy. 116 & Old Cazadero Rd.,,38.49526664,-123.0083638,464,,0,,
757094,01800,,Old Redwood Hwy. & Chelsea Drive,,38.4953885577835,-122.746041119099,463,,0,,
757262,14430,,River Rd. & Fulton Rd.,,38.49634363,-122.7674106,483,,0,,
757780,61000,,Hwy. 116 & Hessel Rd.,,38.36340461,-122.7794375,466,,0,,
757120,03000,,Old Redwood Hwy. & Pleasant Ave.,,38.54029979,-122.7937979,463,,0,,
757424,27500,,Arnold Dr. & Sonoma Glen Circle,,38.34198954,-122.5137598,469,,0,,
938,93800,,Grove St. & Dry Creek Rd.,,38.6258043766,-122.8756439228,462,,0,,
757364,20900,,Morris St. & Hwy. 12,,38.4038814138405,-122.819399274483,466,,0,,
757875,70100,,Myrtle Ave. & Macklin Dr.,,38.3214074,-122.7013407,471,,0,,
757078,01010,,Administration Dr. & Paulin,,38.46425226,-122.7220606,467,,0,,
757122,03200,,Old Redwood Hwy. & Alden Ln.,,38.54340506,-122.8000289,463,,0,,
757391,24700,,Hwy. 12 & Boas Dr.,,38.46489233,-122.6572843,467,,0,,
757483,31900,,Verano Ave. & Main St.,,38.30270313,-122.4784528,470,,0,,
757502,33600,,Arnold Dr.,,38.3553199,-122.5251394,469,,0,,
757546,38900,,Healdsburg Ave. & N. Main St.,,38.40536057,-122.8277428,466,,0,,
757554,39500,,Ross Rd. & Kamuela Rd.,,38.44192618,-122.870603,466,,0,,
757815,64000,,Hwy. 116 & Industrial Ave.,,38.38374465,-122.8107886,466,,0,,
757971,83100,,1st St. Et. & East Spain St.,,38.29374891,-122.4562244,470,,0,,
758074,98200,,The Tides (Bodega Bay),,38.3286943774,-123.0445250304,479,,0,,
757325,18600,,River Rd.,,38.50410574,-122.9405973,464,,0,,
757444,29500,,Riverside Dr. & Solano Ave.,,38.29673473,-122.4812125,470,,0,,
757912,92000,,McClelland Dr. & Duvander Ln.,,38.5482629974,-122.8161050765,463,,0,,
757682,51000,,Adrian Dr. & Bonnie Ave.,,38.33225387,-122.7005409,471,,0,,
757255,13800,,Copperhill Pkwy. & N. Laughlin Rd.,,38.50722201,-122.7978727,463,,0,,
757878,70400,,Lancaster/Myrtle,,38.32205842,-122.6894212,471,,0,,
758008,87000,,3rd St. West & Perkins St.,,38.28909652,-122.4639501,470,,0,,
757270,15100,,Old Redwood Hwy. & Larkfield Maples Ct.,,38.49924528,-122.749655,463,,0,,
757583,42700,,Redwood Dr. & Commerce Blvd.,,38.3655538,-122.7135683,471,,0,,
759012,57650,,Fairway Dr. & Flores Ave.,,38.36564749,-122.7046399,471,,0,,
757121,03100,,Old Redwood Hwy. & Hembree Ln.,,38.54186574,-122.7972778,463,,0,,
757168,07400,,Cloverdale City Hall & Plaza,,38.805965,-123.017418,460,,0,,
757254,13700,,N. Laughlin Rd. & Copperhill Parkway,,38.50902884,-122.8003805,463,,0,,
757558,39900,,Hwy. 116 & Templeman Rd.,,38.46347716,-122.8792265,465,,0,,
757733,54800,,N. McDowell Blvd. & Dynamic St.,,38.25804034,-122.6413586,472,,0,,
757930,74100,,Redwood Dr. & Hwy. 116,,38.33173584,-122.7155296,471,,0,,
757972,83200,,Vintage House Senior Center,,38.2960438,-122.4558399,470,,0,,
757607,44800,,Cotati Hub,,38.32619993,-122.7061734,471,,0,,
757779,60900,,Hwy. 116 & Lone Pine Rd.,,38.36484362,-122.7809687,466,,0,,
757543,38600,,Morris St. & Hwy. 12,,38.40359583,-122.8191429,466,,0,,
757674,50600,,Old Redwood Hwy. & Valparaiso,,38.32238485,-122.7027804,471,,0,,
757874,70000,,Hunter Dr. & Senior Center,,38.34551126,-122.7089704,471,,0,,
757194,09500,,Healdsburg Ave. & Sunnyvale Dr.,,38.62845329,-122.872767,462,,0,,
757196,09700,,Healdsburg Ave. & Sherman St.,,38.61864331,-122.8720327,462,,0,,
757950,76610,,Occidental Rd. & Fulton Rd.,,38.42762517,-122.7711045,467,,0,,
757286,15790,,Administration Dr. & Paulin,,38.464191,-122.721779,467,,0,,
757246,13430,,Shiloh Rd. & Skylane Blvd.,,38.52582137,-122.802,463,,0,,
757153,06100,,Geyserville Ave. (Geyserville Park & Ride),,38.70732429,-122.9052184,461,,0,,
757689,51700,,Commerce Blvd. & R.P. Expressway,,38.34761562,-122.7094376,471,,0,,
757611,45200,,Old Redwood Hwy. & Fern Avenue/Highland,,38.30975919,-122.6906597,471,,0,,
757633,47100,,Petaluma Hill Rd. & Dutch Ln.,,38.30445665,-122.6665857,471,,0,,
757223,12010,,Hembree Ln. & Broad Oak Way,,38.53920919,-122.7981025,463,,0,,
757200,10100,,Old Redwood Hwy. & Btwn. Eastside/Limerick,,38.5827618,-122.8461949,462,,0,,
759014,99999,,Country Club Dr. & Daniel Dr.,,38.36054073,-122.694241,471,,0,,
761168,49110,,Petaluma Blvd. & Kent St.,,38.2395887307727,-122.64313352573,472,,0,,
758044,91000,,Los Amigos Rd. & Tabatha Way,,38.5571219755,-122.818033724,463,,0,,
757647,47960,,Rainier Ave. & Maria Dr.,,38.25872677,-122.6325735,472,,0,,
757862,68800,,Hwy. 116 & Old River Rd.,,38.50446796,-122.9927013,464,,0,,
757947,76400,,Sebastopol Rd. & Corporate Ctr. Pkwy.,,38.4260678,-122.7539894,467,,0,,
757636,47400,,McDowell Blvd. & Old Redwood Hwy.,,38.27341725,-122.6656986,472,,0,,
757072,00500,,Mendocino Ave. & Benton St.,,38.44770463,-122.7174964,467,,0,,
757794,62600,,E. Cotati/Lancaster,,38.33073356,-122.6941078,471,,0,,
757439,28900,,Verano Ave. & Main St.,,38.30294243,-122.4779746,470,,0,,
757472,31410,,Hwy. 12 & West Spain St.,,38.29515861,-122.4755738,470,,0,,
757800,62750,,Manchester & Magnolia,,38.32858921,-122.6797018,471,,0,,
757989,85400,,Lakeville Hwy. & Marina Ave.,,38.23336161,-122.6100011,472,,0,,
757861,68700,,River Rd. & Bonita Ave.,,38.50740281,-122.9891434,464,,0,,
757529,36000,,Hwy. 12 & Jack London Dr.,,38.46473019,-122.6615931,467,,0,,
758032,89700,,Hembree Ln. & Foothill Dr.,,38.5581254014,-122.7979329179,463,,0,,
757990,85500,,Lakeville Hwy. & Baywood Dr.,,38.23314703,-122.6134885,472,,0,,
757231,12500,,Old Redwood Hwy. & Donna Drive/Fulton Rd.,,38.51667376,-122.7706368,463,,0,,
757258,14310,,Airport Blvd. & Regional Pkwy.,,38.51101597,-122.7858365,463,,0,,
757749,56400,,Petaluma Hill Rd. & Curtis Dr.,,38.33352119,-122.666654,471,,0,,
757670,50200,,Old Redwood Hwy. & Adobe Rd.,,38.30331586,-122.681021,471,,0,,
757398,25400,,Hwy. 12 & Melita Rd. (East End),,38.45351777,-122.6229557,468,,0,,
757634,47200,,Petaluma Hill Rd. & Adobe Rd.,,38.29960772,-122.6665129,471,,0,,
757312,17800,,Hwy. 116 (Guerneville Park & Ride),,38.50185113,-123.0027351,464,,0,,
757336,19400,,Forestville (Downtown),,38.4735395,-122.8928919,465,,0,,
757460,30530,,2nd St. West & Bettencourt St.,,38.28674937,-122.4621864,470,,0,,
757526,35700,,Hwy. 12 & Mountain Hawk,,38.46269441,-122.6436854,468,,0,,
757541,38400,,Hwy. 12 & Merced Rd.,,38.42114279,-122.7788678,467,,0,,
757924,73760,,Holly Ave. & Hawthorne Circle,,38.37148141,-122.6936598,471,,0,,
785279,62610,,East Cotati Ave. & Santero Way,,38.3317530670004,-122.691745027686,471,,0,,
757513,34500,,Pythian Rd. & Hwy. 12,,38.43444386,-122.5788454,468,,0,,
757506,34000,,Hwy. 12 & Nuns Canyon Rd.,,38.38891191,-122.5231929,469,,0,,
757936,74700,,Snyder Ln. & Keiser,,38.35677569,-122.6858597,471,,0,,
757427,27800,,Agua Caliente Rd. & Lake St.,,38.32390851,-122.4919885,470,,0,,
757470,31300,,Hwy. 12 & 7th St. West,,38.29342576,-122.4724949,470,,0,,
758023,88800,,Conde Ln. & Den Beste Ct.,,38.5342667698,-122.7983706072,463,,0,,
757996,86100,,Lakeville Hwy. & Casa Grande Rd.,,38.23354159,-122.603953,472,,0,,
757965,82500,,Railroad Ave & Toy Ln.,,38.30842079,-122.4900298,470,,0,,
757675,50700,,Old Redwood Hwy. & Page Ave.,,38.3239580120984,-122.703961319609,471,,0,,
757750,56500,,East Cotati Ave. & Petaluma Hill Rd.,,38.3362539,-122.6687535,471,,0,,
757265,14600,,Old Redwood Hwy. & Airport Blvd,,38.51063803,-122.7630671,463,,0,,
757313,17900,,Guerneville Safeway,,38.50182822,-123.0005581,464,,0,,
757778,60800,,Hwy. 116 & Todd Rd. & Old Grvnstn. Hwy.,,38.36787066,-122.7832729,466,,0,,
758082,99000,,Bodega (Westbound),,38.3457563177,-122.9737519628,486,,0,,
758026,89100,,Hembree Ln. & Old Redwood Hwy.,,38.5429659926,-122.7978690485,463,,0,,
757195,09600,,Healdsburg Ave. & Dry Creek Rd.,,38.62504465,-122.8728117,462,,0,,
757564,40250,,Snyder Ln. & Mountain View Ave.,,38.378834,-122.685951,471,,0,,
757093,01700,,Old Redwood Hwy. & La Mancha Apartments,,38.49373114,-122.7439674,463,,0,,
757514,34600,,Pythian Rd. & Oaktrail Dr.,,38.43186861,-122.5803882,468,,0,,
757374,21700,,Sebastopol Rd. & Stony Point Rd.,,38.42661118,-122.7434526,467,,0,,
758049,91500,,Old Redwood Hwy. & Windsor Rd.,,38.552422579,-122.8165654862,463,,0,,
759020,57630,,Fairway Dr. & Holly Ave.,,38.37155685,-122.6964337,471,,0,,
757217,11700,,Old Redwood Hwy. & Shira St.,,38.53907503,-122.7924649,463,,0,,
757735,55000,,N. McDowell Blvd. & Southpoint,,38.26170508,-122.6477803,472,,0,,
757314,18000,,River Rd. & Armstrong Woods Rd.,,38.50196802,-122.996923,464,,0,,
757145,05400,,Healdsburg Ave. & Terrace,,38.62766601,-122.8725195,462,,0,,
757411,26400,,Hwy. 12 & Lawndale Dr.,,38.42939125,-122.5640423,468,,0,,
757471,31400,,Hwy. 12 ,,38.29365842,-122.4749051,470,,0,,
757293,16400,,Mendocino Ave. & Benton,,38.44802358,-122.7177412,467,,0,,
757595,43500,,Commerce Blvd. & Padre Parkway,,38.35011198,-122.7097556,471,,0,,
757277,15700,,Coddingtown,,38.45713299,-122.7324378,467,,0,,
757673,50500,,Old Redwood Hwy. & East Railroad Ave.,,38.31470927,-122.6946934,471,,0,,
757172,07700,,Cloverdale Blvd & Brookside Dr.,,38.79103546,-123.0175593,460,,0,,
757734,54900,,N. McDowell Blvd. & Sunrise Parkway,,38.25964185,-122.6441673,472,,0,,
927,92900,,Heron Dr. & Hummingbird  Ct.,,38.6107386470006,-122.854625828258,462,,0,,
757362,20870,,Mill Station Rd. & Hwy. 116,,38.4124101,-122.8434301,466,,0,,
757982,84700,,Hermosa Pkwy./ Watmaugh,,38.26009485,-122.4866495,470,,0,,
758060,959,,Jefferson St. & W. 4th St.,,38.8070685174,-123.0226078512,550,,0,,
757206,10700,,Starr Rd. & Gumview Rd.,,38.55622282,-122.8262255,463,,0,,
757348,20600,,Healdsburg Ave. & Murphy Ave.,,38.40523618,-122.8325923,466,,0,,
923,93500,,Russian River Trailer Park,,38.6040072429276,-122.862545760244,462,,0,,
757071,00400,,Mendocino Ave. & College Ave.,,38.446148,-122.71756,467,,0,,
757445,29600,,Riverside Dr. & Petaluma Ave.,,38.29401191,-122.4773754,470,,0,,
757849,67500,,Forestville (Downtown),,38.47367409,-122.8929302,465,,0,,
757530,36100,,Hwy. 12 & Middle Rincon Rd.,,38.4640752,-122.6644193,467,,0,,
758034,89900,,Arata Ln. & Troon Ct.,,38.5621757908,-122.8018424119,463,,0,,
758039,90400,,Raley's Shopping Center,,38.5492273512,-122.8051478676,463,,0,,
757104,02000,,Old Redwood Hwy. & Ascot Dr.,,38.50331782,-122.7571013,463,,0,,
757436,28800,,Hwy. 12 & Verano Ave.,,38.30319307,-122.4767272,470,,0,,
757584,42710,,Graton Resort (Redwood Dr. / Golf Course Dr.),,38.3637023219566,-122.714933916077,471,,0,,
757086,01090,,Range Ave. & Steele Ln.,,38.46037227,-122.7326246,467,,0,,
770316,94600,,N. University St. & Monte Vista Ave.,,38.623965322904,-122.863825986269,462,,0,,
757695,51910,,State Farm Dr. & City Hall Dr.,,38.35045232,-122.7058571,471,,0,,
757639,47700,,McDowell Blvd. & Corona Rd.,,38.26729842,-122.6582232,472,,0,,
757330,19000,,Mirabel Rd. Ext. & River Rd.,,38.49324369,-122.8960599,465,,0,,
757811,63600,,Hwy. 116 & Todd Rd.,,38.36997547,-122.7850067,466,,0,,
757495,32900,,Agua Caliente Rd. & Lake St.,,38.32510088,-122.4897554,470,,0,,
757100,01870,,River Rd. & Laughlin Rd.,,38.49311072,-122.7880104,463,,0,,
757662,49500,,Petaluma Blvd. & Corona Rd.,,38.26028752,-122.6611146,472,,0,,
757810,63500,,Hwy. 116 & Lone Pine Rd.,,38.36500561,-122.7809461,466,,0,,
757577,41500,,Santa Rosa Ave. & Todd Rd.,,38.38975155,-122.7137317,467,,0,,
757922,73740,,Fairway/ Country Club,,38.36626523,-122.697851,471,,0,,
757620,46010,,Petaluma Blvd. & Emerald Dr.,,38.26236763,-122.6659093,472,,0,,
757224,12020,,Hembree Ln. & Dove Ln.,,38.536034,-122.798073,463,,0,,
757751,56600,,Sonoma State University,,38.33807478,-122.6750043,471,,0,,
757802,62770,,Bodway & Maurice,,38.33433504,-122.6777819,471,,0,,
757855,68100,,River Rd. & Grays Ct. (Ac. Berry's Market),,38.50918152,-122.9236538,464,,0,,
757906,72500,,RP Expressway & Redwood Dr.,,38.34824865,-122.7180242,471,,0,,
757696,51920,,Kaiser Medical Center,,38.35484583,-122.7079276,471,,0,,
757285,15780,,Administration Dr. & Ventura Ave.,,38.464062,-122.723862,467,,0,,
757949,76600,,Sebastopol Rd. & Wright Rd.,,38.42492172,-122.7685422,467,,0,,
757497,33100,,Hanna Boys Center,,38.32076843,-122.5021438,470,,0,,
758058,957,,North St. & Jefferson St.,,38.8121496574,-123.0240130654,550,,0,,
758005,86720,,Broadway & Leveroni Rd.,,38.27715705,-122.4599655,470,,0,,
757074,00700,,Ac. Santa Rosa Junior College,,38.45503268,-122.7172169,467,,0,,
757940,75000,,Snyder Ln. & RP Expressway,,38.34492622,-122.685618,471,,0,,
757722,54400,,N. McDowell Blvd. (Lucchesi Park),,38.2523146,-122.6311875,472,,0,,
758007,86900,,Sonoma Valley Hospital,,38.28848503,-122.4655984,470,,0,,
757723,54500,,N. McDowell Blvd. & Lynch Creek Way,,38.25338689,-122.6330373,472,,0,,
758933,70730,,Burton Ave. & Bernice Ave.,,38.336985772554,-122.69811809063,471,,0,,
757765,58100,,East Cotati Ave. & Cristobal Way,,38.3351866,-122.6868726,471,,0,,
757836,65700,,Corby Extension,,38.41348062,-122.7193553,467,,0,,
757365,21000,,Hwy. 12 & Llano Rd.,,38.41201252,-122.7941031,466,,0,,
757219,11900,,Old Redwood Hwy. & Billington Ln.,,38.53530859,-122.7882376,463,,0,,
757738,55300,,N. McDowell Blvd. & Rand St.,,38.26777574,-122.6585469,472,,0,,
757821,64400,,Palm Dr. Hospital,,38.39692224,-122.8201819,466,,0,,
947,94800,,Fitch St. & Grant St.,,38.616421511068,-122.867320370356,462,,0,,
757908,72700,,RP Expressway & Country Club Dr.,,38.34811828,-122.7002912,471,,0,,
757781,61100,,Hwy. 116 & Daywalt Rd. (N xing 116),,38.35895541,-122.7714949,466,,0,,
757841,66200,,Moorland Ave. & Thistle Ln.,,38.39883714,-122.7186205,467,,0,,
757851,67700,,Mirabel Rd. & Davis Rd.,,38.48076899,-122.8947293,465,,0,,
757991,85600,,Lakeville St. & SB Hwy. 101 on-ramp,,38.23417966,-122.6192798,472,,0,,
757452,30220,,2nd St. W. & Bettencourt St.,,38.28691122,-122.4619977,470,,0,,
757571,40900,,Santa Rosa Ave. & Burt St.,,38.40925313,-122.7137078,467,,0,,
757260,14410,,Fulton Rd. & Airport Blvd.,,38.51068055,-122.7700679,463,,0,,
757230,12400,,Old Redwood Hwy. & Colonial Park Dr.,,38.5188485725328,-122.773230016394,463,,0,,
757745,56000,,Petaluma Hill Rd. & East Railroad Ave.,,38.30904114,-122.6664287,471,,0,,
757129,03900,,Starr Rd. & Colleen Dr.,,38.55397225,-122.825971,463,,0,,
757808,63300,,Hwy. 116 & Daywalt Rd. (N xing 116),,38.35912251,-122.7713102,466,,0,,
757761,57700,,Snyder Ln. & Mountain View Ave.,,38.380432,-122.685822,471,,0,,
757190,09100,,Healdsburg Ave. & Lytton Springs Rd.,,38.658852,-122.8717621,462,,0,,
757102,01900,,Old Redwood Hwy. & Mark West Springs Rd.,,38.4988560367303,-122.749122651486,463,,0,,
757151,05900,,Geyserville Ave. & Tzabaco Creek Rd.,,38.69346736,-122.8853573,461,,0,,
757344,20200,,Graton Rd. & Hwy. 116,,38.43684683,-122.858364,466,,0,,
757166,07300,,Cloverdale Blvd. & South St.,,38.80027783,-123.0164808,460,,0,,
757952,76800,,Irwin Ln. & Hwy. 12,,38.41797344,-122.7895855,466,,0,,
757082,01050,,Kaiser Stop / Bicentennial Ave,,38.47034051,-122.7257001,467,,0,,
757507,34100,,Hwy. 12 & Libby Ave.,,38.41193128,-122.5444157,468,,0,,
757789,61800,,Redwood Dr. & RP Expressway,,38.34768745,-122.7166747,471,,0,,
757831,65200,,Moorland Ave. & West Robles Ave.,,38.39438405,-122.7184786,467,,0,,
757124,03400,,Windsor River Rd. & Old Redwood Hwy.,,38.54742656,-122.8115173,463,,0,,
757291,16200,,Santa Rosa Junior College,,38.45387671,-122.7175856,467,,0,,
757609,45000,,Old Redwood Hwy. & Valparaiso Ave.,,38.32048088,-122.7016937,471,,0,,
757103,01910,,Larkfield Shopping Center,,38.50125011,-122.7515788,463,,0,,
757786,61500,,Hwy. 116 & Redwood Dr.,,38.33161793,-122.7164093,471,,0,,
758022,88700,,Conde Ln.,,38.5362236507,-122.8001727649,463,,0,,
757826,64700,,Amarosa Academy,,38.39713582,-122.7234076,467,,0,,
757274,15500,,Old Redwood Hwy. (Kaiser Stein Bldg.),,38.48283847,-122.7346954,467,,0,,
757171,07600,,Cloverdale Blvd & Franklin St.,,38.79820655,-123.0184563,460,,0,,
757517,34900,,Oakmont Golf Course,,38.43222382,-122.5930211,468,,0,,
757762,57800,,Petaluma Hill Rd. & Hunter Ln.,,38.3855537,-122.6879628,471,,0,,
757615,45600,,Old Redwood Hwy. & Petaluma Hill Rd.,,38.29430211,-122.6670066,471,,0,,
757953,80000,,San Rafael Transit Center,,37.97116752,-122.5230338,584,,0,,
758035,90000,,Arata Ln. & Brooks Rd. Embree Ln.,,38.5621307025,-122.8043053991,463,,0,,
757592,43200,,Commerce Blvd. & Utility Ct.,,38.36092791,-122.7125522,471,,0,,
757668,50000,,Old Redwood Hwy. & Petaluma Hill Rd.,,38.29459138,-122.6668434,471,,0,,
757824,64520,,Laguna Park Way & Morris St.,,38.40513006,-122.8200281,466,,0,,
757561,40220,,Petaluma Hill Rd. & Colgan Ave.,,38.42307158,-122.7078588,467,,0,,
757692,51730,,Graton Resort (Redwood Dr. / Golf Course Dr.),,38.36258666,-122.7147756,471,,0,,
758725,73110,,Country Club Dr. & Santa Cruz Way,,38.3496520105211,-122.695779204369,471,,0,,
757606,44700,,East Cotati Ave. & La Salle St.,,38.32873313,-122.6994569,471,,0,,
758004,86710,,Leveroni Rd. & Palmer Ave.,,38.27619408,-122.4648714,470,,0,,
757544,38700,,Laguna Park Way & Morris St.,,38.40520772,-122.8204207,466,,0,,
758002,86610,,Via Colombard & Carnation,,38.2640845906,-122.4976170176,470,,0,,
757209,11000,,Windsor River Rd. & Spencer St.,,38.54716554,-122.8206467,463,,0,,
757310,17600,,Hwy. 116 & Riverside Dr.,,38.49266947,-123.0145537,464,,0,,
757537,36800,,Montgomery Dr. & Shortt Rd.,,38.44567189,-122.6915052,467,,0,,
757547,39000,,Healdsburg Ave. & Murphy Ave.,,38.40543351,-122.8332196,466,,0,,
757629,46700,,Petaluma Hill Rd. & Robert's Rd.,,38.3282859,-122.6668176,471,,0,,
757680,50840,,Commerce Blvd. & Wilford Ln.,,38.33500387,-122.7123589,471,,0,,
757858,68400,,River Rd. & Odd Fellows Park Rd.,,38.51027234,-122.9661932,464,,0,,
757405,26000,,Valley Oaks & Pythian Rd.,,38.43074626,-122.587388,468,,0,,
757437,28810,,Maxwell Village on Hwy. 12,,38.29911987,-122.4753365,470,,0,,
757795,62700,,East Cotati Ave. & Windmill Farms Dr.,,38.33246852,-122.6903189,471,,0,,
758083,99100,,Bodega Bay Post Office (Westbound),,38.3242272485,-123.0389920189,479,,0,,
757652,48400,,McDowell Blvd. & Lynch Creek Way,,38.25320418,-122.6331855,472,,0,,
757447,29800,,Hwy. 12 & 7th St. West,,38.29324336,-122.4723624,470,,0,,
757519,35100,,Oakmont Dr. & Hillsdale Dr.,,38.43774846,-122.5994435,468,,0,,
757549,39110,,Gravenstein Hwy. & Mill Station Rd.,,38.41322168,-122.8432477,466,,0,,
757743,55800,,Petaluma Hill Rd. & Adobe Rd.,,38.29956043,-122.6663439,471,,0,,
757138,04900,,Healdsburg Ave. & Exchange Way,,38.60561888,-122.8687294,462,,0,,
757667,49900,,Old Redwood Hwy. & Hatchery Rd.,,38.29000293,-122.6663126,471,,0,,
757160,06710,,Asti Rd. & Theresa Dr.,,38.76610151,-122.9913956,460,,0,,
757658,49100,,Petaluma Blvd. & Mary (Downtown Petaluma),,38.2365389,-122.6415435,472,,0,,
757772,60200,,Hwy. 116 & Fircrest Ave.,,38.3908633,-122.816698,466,,0,,
757426,27700,,Hanna Boys Center,,38.32080998,-122.5023471,469,,0,,
939,93900,,Oak Grove Apartments,,38.6331671332,-122.8766603228,462,,0,,
757539,37000,,Third St. & Brookwood,,38.44265692,-122.7069169,467,,0,,
757375,21800,,Sebastopol Rd. & Hampton Way,,38.4275369,-122.7378369,467,,0,,
757551,39200,,Graton Rd. & Hwy. 116,,38.43700841,-122.8588402,466,,0,,
757345,20300,,Gravenstein Hwy. & Occidental Rd.,,38.42542342,-122.848404,466,,0,,
757701,52300,,Santa Rosa Ave. & Horn Ave.,,38.37628493,-122.7133048,467,,0,,
757968,82800,,W. Napa St. & 5th St. W. (front of Safeway),,38.29277243,-122.4674966,470,,0,,
757250,13480,,Joe Rodota Way & Old Redwood Hwy.,,38.54971299,-122.8150705,463,,0,,
757339,19700,,Hwy. 116 & Guerneville Rd.,,38.45137218,-122.8681371,465,,0,,
757918,73700,,Golf Course Dr. & Hillview Ct.,,38.367018,-122.688735,471,,0,,
757715,53900,,Santa Rosa Ave. & Maple Ave.,,38.43176189,-122.7112025,467,,0,,
757843,66400,,Moorland Ave. & btwn. W. Robles/Todd,,38.39213027,-122.7185054,467,,0,,
758087,99500,,Moscow Rd. & Russian River Ave.,,38.4737335853,-123.0217095343,464,,0,,
757914,73300,,Country Club Dr. & Ellen St.,,38.35565236,-122.6937922,471,,0,,
757756,57200,,Lawrence Jones Middle School,,38.35167895,-122.6854621,471,,0,,
757783,61210,,Hwy. 116 & Hessel & Blank Rd.,,38.34346924,-122.7574062,471,,0,,
757568,40600,,Santa Rosa Ave. & Commercial Ct. (Market Place),,38.41831752,-122.7136858,467,,0,,
757573,41100,,Santa Rosa Ave. & Bellevue Ave.,,38.40419841,-122.7136344,467,,0,,
757856,68200,,River Rd. & Westside Rd.,,38.50677621,-122.9303604,464,,0,,
757613,45400,,Old Redwood Hwy. & Penngrove Ave.,,38.30307132,-122.6810598,471,,0,,
757322,18300,,River Rd.,,38.51350048,-122.9836682,464,,0,,
757466,30900,,West MacArthur St. & 4th St. West,,38.2856323,-122.4671959,470,,0,,
758743,82010,,Valletti Dr.  & Lake St.,,38.3219131989258,-122.490285784006,470,,0,,
757090,01400,,Old Redwood Hwy. &,,38.47935233,-122.7326428,467,,0,,
757422,27300,,Sonoma Dev. Center,,38.34874293,-122.5168092,469,,0,,
758013,87800,,Windsor Rd. & Winemaker Way,,38.53930264,-122.8168762,463,,0,,
757600,44300,,Adrian/ Southwest,,38.3354751848146,-122.705107927322,471,,0,,
757753,56800,,East Cotati Ave. & Snyder/Roman,,38.336248,-122.6822277,471,,0,,
757239,13200,,Airport Blvd. & N. Laughlin Rd.,,38.51113418,-122.8006591,463,,0,,
757819,64300,,Hwy. 116 & Hutchins Ave.,,38.39302891,-122.818031,466,,0,,
757378,22100,,Sebastopol Rd. & Avalon Ave.,,38.42994208,-122.7276989,467,,0,,
757106,02100,,Old Redwood Hwy. & Faught Rd.,,38.50878194,-122.7598039,463,,0,,
771475,60110,,Hwy. 116 and Hutchins Ave.,,38.3932625783333,-122.818402960683,466,,0,,
757295,16600,,B St. & Seventh St.,,38.44089571,-122.7167027,467,,0,,
757302,17330,,Moscow Rd. & Casini Ranch,,38.46028036,-123.0453249,464,,0,,
921,92500,,Safeway,,38.6096864784742,-122.873346166062,462,,0,,
757068,00100,,Santa Rosa Transit Mall,,38.43868566,-122.7137267,467,,0,,
757799,62740,,Camino Colegio/Manchester,,38.32519458,-122.6811075,471,,0,,
757717,54100,,Petaluma Transit Mall,,38.236645,-122.636513,472,,0,,
758017,88200,,Mitchell Ln. & 8th Hole Dr.,,38.5327649641,-122.8093547791,463,,0,,
757221,11920,,Old Redwood Hwy. & Anna Dr.,,38.530375,-122.782642,463,,0,,
757538,36900,,Memorial Hospital,,38.44305655,-122.7010683,467,,0,,
757964,82400,,Railroad Ave. & Boyes Blvd.,,38.31139868,-122.4920783,470,,0,,
757714,53700,,Santa Rosa Ave. & Barham Ave.,,38.4275483,-122.7128235,467,,0,,
757880,70600,,Lancaster & Liman Way,,38.32634116,-122.6915191,471,,0,,
757461,30600,,Broadway & Maple St.,,38.28982359,-122.4583664,470,,0,,
757920,73720,,Golf Course Dr. & Fairway Dr.,,38.36254378,-122.7083115,471,,0,,
757478,31720,,Railroad Ave. & Toy Ave.,,38.30932889,-122.4903282,470,,0,,
757198,09900,,Healdsburg Ave. & Mill St.,,38.60736069,-122.8696934,462,,0,,
758043,90900,,Los Amigos Rd. & Valley Oak Ct.,,38.5541731388,-122.8152154863,463,,0,,
757373,21400,,S.R. Corporate Center (The Lakes),,38.42599396,-122.7512049,467,,0,,
757118,02800,,Old Redwood Hwy. & Shamrock Circle,,38.53480177,-122.7873834,463,,0,,
757287,15800,,Mendocino Ave./ Bicentennial Way,,38.46937261,-122.7222384,467,,0,,
757298,17200,,Monte Rio (Creekside Park),,38.4608333037068,-123.011846983386,464,,0,,
757627,46500,,Washington & Petaluma Blvd. (Downtown Petaluma),,38.2357086,-122.6407987,472,,0,,
948,94900,,CVS (Piper. St.),,38.6142284040189,-122.870841301056,462,,0,,
757948,76500,,Sebastopol Rd. & Billie Jean St.,,38.42540353,-122.7626005,467,,0,,
757149,05800,,Lytton Springs Rd. & Geyserville Ave.,,38.65939271,-122.8724128,462,,0,,
757390,24600,,Hwy. 12 & Maria Ln.,,38.46472612,-122.6604336,467,,0,,
758038,90300,,Brooks Rd. & Glen Miller Dr. (Lakewood Village),,38.5511211631,-122.8075336683,463,,0,,
757928,74000,,Redwood Dr. & Portal,,38.34150976,-122.7133656,471,,0,,
757105,02010,,Old Redwood Hwy. & Deerwood Dr.,,38.50551709,-122.7587711,463,,0,,
757671,50300,,Old Redwood Hwy. & Minnesota Ave.,,38.30719898,-122.6877487,471,,0,,
757773,60300,,Hwy. 116 & Lynch Rd.,,38.38858716,-122.8148809,466,,0,,
757988,85300,,Lakeville Hwy. & Casa Grande Rd.,,38.23389969,-122.6036133,472,,0,,
757788,61700,,Redwood Dr. & RP Expressway,,38.345704,-122.7155439,471,,0,,
757186,08810,,Geyserville Ave. (Ac. Geyserville Park & Ride),,38.70718305,-122.9052674,461,,0,,
757654,48510,,McDowell Blvd. & E. Washington St.,,38.24970263,-122.6269924,472,,0,,
757702,52400,,Santa Rosa Ave. & Mountain View Ave.,,38.38156553,-122.7134087,467,,0,,
757820,64310,,Hwy. 116 & Southpoint Ave.,,38.39447167,-122.8187896,466,,0,,
757299,17300,,Main St. & Moscow Rd.,,38.46412774,-123.0104746,464,,0,,
757889,71100,,Southwest Blvd. & Seedfarm Dr.,,38.34141781,-122.6969639,471,,0,,
758067,975,,South St. & Cloverdale Blvd.,,38.8007996612,-123.0160585519,550,,0,,
757115,02560,,Hembree Ln. & Broad Oak Way,,38.53898988,-122.7979351,463,,0,,
757660,49300,,Petaluma Blvd. & Shasta Ave.,,38.24692128,-122.6451768,472,,0,,
757604,44400,,Adrian Dr. & Bonnie Ave.,,38.33212509,-122.7003778,471,,0,,
757867,69200,,Hwy. 116 & Lovers/Guernewood Ln.,,38.49532542,-123.0086669,464,,0,,
757261,14420,,Fulton Rd. & River Rd.,,38.4976679,-122.7701479,483,,0,,
757381,23700,,Memorial Hospital,,38.44302404,-122.7004943,467,,0,,
757147,05600,,Healdsburg Ave. & Parkland Farms Dr.,,38.63837884,-122.873838,462,,0,,
757308,17400,,D St. & Bohemian Hwy.,,38.4677389665469,-123.010660087731,464,,0,,
757407,26200,,Pythian Rd. & Oaktrail Dr.,,38.43181263,-122.5802524,468,,0,,
757721,54300,,E. Washington St. & Kenilworth Dr.,,38.243941788935,-122.630550563335,472,,0,,
757303,17340,,Duncans Mills,,38.453416066,-123.0536903381,464,,0,,
757450,30100,,Fifth St. West & West MacArthur,,38.28661593,-122.4691378,470,,0,,
757642,47910,,Sonoma Mtn. Pkwy & Maria Dr.,,38.26803525,-122.6489003,472,,0,,
757591,43100,,Redwood Dr. & R.P. Expressway (Chevron Oil Stop),,38.34942966,-122.7170484,471,,0,,
757133,04400,,Old Redwood Hwy. &,,38.56633599,-122.8312631,463,,0,,
757935,74600,,Snyder Ln. & Eleanor St.,,38.35948127,-122.6858463,471,,0,,
757109,02400,,Old Redwood Hwy. & Plymouth Way,,38.52004655,-122.7740887,463,,0,,
757077,01000,,Mendocino Ave. & Steele Ln.,,38.46212323,-122.717528,467,,0,,
757218,11800,,Old Redwood Hwy. & Shira St.,,38.5377637,-122.7909856,463,,0,,
757567,40500,,Santa Rosa Ave. & Colgan Ave.,,38.42037241,-122.7137092,467,,0,,
758018,88300,,Mitchell Ln. & 10th Hole Dr.,,38.5328403664,-122.8044319428,463,,0,,
757963,82300,,Boyes Blvd. & Riverside Dr.,,38.31326561,-122.4882235,470,,0,,
757710,53300,,Santa Rosa Ave. & Yolanda Ave.,,38.41180565,-122.7133466,467,,0,,
757155,06300,,Geyserville Ave. & Canyon Rd.,,38.71451402,-122.9173464,461,,0,,
758051,91700,,Old Redwood Hwy. & Windsor River Rd.,,38.5476631704,-122.8109879292,463,,0,,
757679,50830,,Old Redwood Hwy. & St. Joseph Way,,38.33043601,-122.7097035,471,,0,,
757271,15200,,Old Redwood Hwy. & Mark West Springs Rd.,,38.49587144,-122.746945,463,,0,,
757376,21900,,Sebastopol Rd. & Burbank Ave.,,38.42839759,-122.7340787,467,,0,,
757694,51900,,Commerce Blvd/State Farm,,38.35388992,-122.7123491,471,,0,,
757676,50800,,Cotati Hub,,38.3266211,-122.7054706,471,,0,,
757234,13000,,Airport Blvd. & Concourse Blvd.,,38.51123797,-122.7867148,463,,0,,
757337,19500,,Hwy. 116 & Fallen Apple Ln.,,38.46586206,-122.8819268,465,,0,,
757479,31730,,Boyes Blvd. & Railroad Ave.,,38.31173252,-122.4921335,470,,0,,
757586,42810,,Business Park Dr. & Redwood Dr.,,38.35778802,-122.7153751,471,,0,,
757651,48300,,McDowell Blvd. & Rainer Ave.,,38.2557198,-122.6376979,472,,0,,
757117,02700,,Old Redwood Hwy. & Savannah Way,,38.53167894,-122.7837409,463,,0,,
757515,34700,,Pythian Rd. & Golf Ct.,,38.42929266,-122.5832924,468,,0,,
757333,19100,,Mirabel Rd. & Trenton Rd.,,38.48998309,-122.8951477,465,,0,,
757578,41600,,Santa Rosa Ave./ Todd Rd.,,38.38644509,-122.7137469,467,,0,,
757212,11200,,Windsor River Rd. & Old Red. Hwy.,,38.54721113,-122.8119284,463,,0,,
757902,72200,,Rancho Verde Mobile Home Park,,38.349432,-122.728745,471,,0,,
757979,84610,,Temelec - Arnold Dr. & Watmaugh Rd.,,38.25997553,-122.4833148,470,,0,,
757073,00600,,Mendocino Ave. & Ridgeway,,38.44997874,-122.7174098,467,,0,,
757152,06000,,Geyserville Ave. & Walden St.,,38.70547581,-122.9021122,461,,0,,
757350,20710,,Keating Ave. & Pitt Ave.,,38.40386046,-122.8271125,466,,0,,
757185,08800,,Geyserville Ave. & School House Ln.,,38.70820645,-122.9070055,461,,0,,
757150,05810,,Geyserville Ave. & Independence Ln.,,38.67911269,-122.8797758,461,,0,,
757997,86200,,Lakeville Hwy. & S. McDowell Blvd.,,38.23400178,-122.5994623,472,,0,,
757891,71300,,Southwest Blvd. & Adrian Dr.,,38.33620656,-122.7049658,471,,0,,
758745,65410,,Bellevue Ave. & Moorland Ave.,,38.4019364705393,-122.718028128147,467,,0,,
757392,24800,,St. Francis Ctr. (Hwy. 12 & Calistoga Rd.),,38.46475266,-122.6536173,467,,0,,
757708,53100,,Santa Rosa Ave. & Bellevue Ave.,,38.40373878,-122.7133053,467,,0,,
757123,03300,,Old Redwood Hwy. & Lakewood Dr.,,38.54625232,-122.8061443,463,,0,,
757226,12040,,Shiloh Center & Wal-Mart (Hembree),,38.526131,-122.787926,463,,0,,
757887,71030,,Burton Ave. & Bonnie Ave.,,38.33426044,-122.6967434,471,,0,,
757459,30520,,2nd St. W. & Andrieux (Ac. Son. Medical Ctr.),,38.28869445,-122.461909,470,,0,,
757296,17000,,Occidental (Bohemian Hwy. & Hill St.),,38.40962859,-122.9486721,464,,0,,
757599,43810,,Commerce Blvd. & Alison,,38.33892972,-122.7123664,471,,0,,
757784,61300,,Hwy. 116 & Stony Point Rd.,,38.33436221,-122.7373297,471,,0,,
