stop_id,stop_name,stop_lat,stop_lon,zone_id
12009992,Administration Dr & County Center Dr,38.464124597,-122.7257874474,
12009993,Agilent,38.4824373311,-122.7105653117,
12009994,Aston Ave at Hendley St,38.4258228489,-122.7025747886,
12009995,Aston Ave at Whitesgate Apts,38.4247604477,-122.7055763683,
12009996,B St & Macys,38.4411632079,-122.7167565608,
12009997,Bellevue Ave & Elsie Allen High School,38.4018575913,-122.7346909494,
12009998,Bennett Valley Rd & Gordon Ln,38.4336107017,-122.6959356466,
12009999,Bennett Valley Rd & Temple Ave,38.431694206,-122.7067619984,
12010000,Bennett Valley Road & Senior Center,38.4306417254,-122.71048237,
12010001,Bethards and Yulupa Ave,38.426078509,-122.6668381924,
12010002,Bethards Dr & Tachevah Dr,38.4282088595,-122.6639892713,
12010003,Bicentennial Wy at Kaiser Hopsital,38.4702084554,-122.7253832405,
12010004,Brown St & Charles St,38.4357284402,-122.7096243755,
12010005,Brown St & Mill St,38.434188571,-122.7093177845,
12010006,Brown St & Oak St,38.4326366289,-122.7089893381,
12010007,Bryden Ln & Austin Wy (Proctor Terrace School),38.4511707513,-122.6982222614,
12010008,Bryden Ln & Grosse Ave (Proctor Terace School),38.4512173813,-122.6981967981,
12010009,Calistoga Rd & Beaumont Wy,38.4798482154,-122.6568020362,
12010010,Calistoga Rd & Dupont Dr,38.4693330062,-122.6538648819,
12010011,Calistoga Rd & Dupont Dr,38.4693330062,-122.6539201742,
12010012,Calistoga Rd & Highway 12 (St. Francis Shopping Center),38.4652716843,-122.6534244098,
12010013,Calistoga Rd & Marit Dr,38.4663971254,-122.6535254519,
12010015,Calistoga Rd & Monte Verde Dr,38.4720432185,-122.6542344599,
12010014,Calistoga Rd & Monte Verde Dr,38.4721380052,-122.6542028643,
12010016,Calistoga Rd & Parkhurst M.H.P.,38.478306538,-122.6557233062,
12010018,Calistoga Rd & San Luis Ave,38.4752093059,-122.6545853325,
12010017,Calistoga Rd & San Luis Ave,38.4751540136,-122.654624827,
12010019,Calistoga Rd & Yerba Buena Rd,38.4733390837,-122.654400277,
12010020,3336 Chanate Rd,38.4689998413,-122.7043380174,
12010021,Chanate Rd & Terra Linda Dr,38.4676438021,-122.7123673538,
12010022,Chanate Rd at Sutter Hospital Turnout,38.4686090075,-122.7069120386,
12010023,Cleveland Ave & Industrial Dr (K-Mart),38.4780611021,-122.7330550814,
12010024,Coddingtown at JC Penneys,38.4570892057,-122.7325426676,
12010025,Coddingtown at JC Penneys,38.4570892057,-122.7325426676,
12010026,COFFEE & GUERNEVILLE,38.4570433346,-122.7369501207,
12010027,COFFEY & STEELE,38.4594355958,-122.7397258502,
12010028,COFFEY & TERRY,38.4637566917,-122.7415704427,
12010029,COFFEY & TERRY,38.463427865,-122.7418106008,
12010030,COFFEY LN & BLUEBELL,38.4657121315,-122.7415881964,
12010031,COFFEY LN & BLUEBELL,38.4657172653,-122.7417744816,
12010032,Coffey Ln & Dogwood Dr,38.47680003,-122.7470839015,
12010033,Coffey Ln & Empire Industrial Ct,38.4700867306,-122.7453039793,
12010034,COFFEY LN & GURNEVILLE,38.4567293901,-122.7367071439,
12010035,COFFEY LN & PINER,38.4676708119,-122.7443035054,
12010036,COFFEY LN & PINER,38.4676487464,-122.7445468483,
12010037,Coffey Ln & San Miguel Ave,38.4742189211,-122.7469043248,
12010038,Colgan Ave & Vintage Park Apartments,38.4213530785,-122.7121605988,
12010039,College Ave & Allison Wy,38.4453044304,-122.7055938331,
12010040,College Ave & E St,38.4454576849,-122.7109156698,
12010041,College Ave & Glenn St,38.445706413,-122.7204851628,
12010042,College Ave & King St,38.4454892805,-122.7107971864,
12010043,College Ave & Mendocino Ave,38.445659923,-122.7176422328,
12010044,College Ave & North St,38.4453838364,-122.7081392417,
12010046,College Ave & Orchard St,38.4455230509,-122.713465392,
12010045,College Ave & Orchard St,38.4455546465,-122.7135522799,
12010047,College Ave & Stewart St,38.4453672567,-122.7070263562,
12010048,Corby Ave & Baker Ave,38.4211440283,-122.7173768109,
12010049,Corby Ave & Barham Ave,38.4267038609,-122.717857703,
12010050,Corby Ave & Cottonwood Dr,38.4172746403,-122.7175176093,
12010051,Corby Ave & Myrtlewood Dr,38.4231100612,-122.7174059164,
12010053,Corporate Center Pkwy & Circadian Wy,38.4196393203,-122.7531638121,
12010054,Corporate Center Pkwy & Corporate Center Ct.,38.4167365764,-122.7541071781,
12010056,CORPORATE CENTER PKWY & NORTHPOINT PKWY,38.4157666002,-122.7539801408,
12010057,Corporate Center Pkwy & Sebastopol Rd/Challenger Wy,38.4248138995,-122.7532910284,
12010058,County Center Dr & Professional Dr (North),38.4630949903,-122.7259481676,
12010059,County Center Dr & Professional Dr (South),38.4610096822,-122.7251424804,
12010060,494   COURT ST,38.406715311,-122.7128953553,
12010061,COURT STREET,38.4055162936,-122.7118029129,
12010062,Delport & West,38.4255226818,-122.7597990124,
12010063,Delport Ave & McMinn Ave,38.4236006718,-122.7312495469,
12010064,Donahue St & 9th St,38.441685528,-122.7254265485,
12010065,Dutton Ave & 3rd St,38.43453535,-122.726837315,
12010066,Dutton Ave & Apple Creek Apts,38.434756519,-122.7271058774,
12010067,Dutton Ave & Decker/9th,38.4408956123,-122.7288921781,
12010068,Dutton Ave & Hewett St,38.4377700105,-122.7287012201,
12010069,Dutton Ave & Hewitt St,38.4377226171,-122.7286459278,
12010070,Dutton Ave & Kingwood St,38.4445572317,-122.7305552872,
12010071,Dutton Ave & W 8th St,38.4392655738,-122.7288265496,
12010072,Dutton Ave & W 9th St,38.4418193659,-122.72901389,
12010073,Dutton Meadow & Bellevue Ave,38.401858173,-122.7299099284,
12010074,Dutton Meadow & Cass Rd,38.4080247428,-122.729446469,
12010075,Dutton Meadow & Meadow View Scholol,38.4120249237,-122.729326177,
12010076,E St & 3rd St (Library),38.4412906406,-122.7102457928,
12010077,E St & Cherry St (SR Junior High),38.4444547913,-122.7109338172,
12010078,Earle St & Corby Ave,38.429362223,-122.7183866935,
12010081,Fairgrounds at Main Pavilion,38.4326907539,-122.7024953367,
12010082,Farmers Lane & Farmers Lane Plaza,38.4343140962,-122.6879300935,
12010083,Farmers Ln & Neotomas Ave,38.4338163513,-122.6882410009,
12088346,Finley Ave & Leddy Ave,38.420051,-122.766064,
12010084,Finley Ave & Wright Rd,38.4198060422,-122.7688600996,
12010085,Finley Center,38.4452083157,-122.7476450997,
12010086,Fountaingrove Pkwy & Thomas Lake Harris Dr,38.4797926531,-122.7200515273,
12010087,Fourth St & Farmers Ln,38.4496764882,-122.6884469305,
12010088,Fourth St & Rodgers Wy,38.4501969613,-122.6926130462,
12010089,Franklin Ave & Lewis Rd,38.4626821052,-122.712405657,
12010091,Fresno Ave & Sebastopol Rd,38.4252146249,-122.7595936412,
12010092,Fulton Rd & Appletree Dr,38.4553620767,-122.7696063674,
12010093,Fulton Rd & Chatham Dr,38.4439479118,-122.7695872047,
12010094,Fulton Rd & Guerneville Rd,38.4526612329,-122.7695876481,
12010095,Fulton Rd & Piner H.S.,38.4611449896,-122.7696506932,
12010096,Fulton Rd & Piner Rd,38.4661449896,-122.7696822888,
12010097,Fulton Rd & Placer Dr,38.4406437923,-122.7695880828,
12010098,Fulton Rd & Quail Hollow Dr,38.4637121753,-122.7696730859,
12010099,Greyhound Depot,38.4337771129,-122.7117670118,
12010100,Guerneville Rd & Burgundy Pl,38.4525822833,-122.7598921724,
12010101,Guerneville Rd & Coffey Ln,38.4568830898,-122.7357176462,
12010102,Guerneville Rd & Gamay St,38.4525863534,-122.7567427699,
12010103,Guerneville Rd & Lance Dr,38.4546818883,-122.7391280089,
12010104,Guerneville Rd & Marlow Rd,38.4526070924,-122.7518393161,
12010105,Guerneville Rd & Peterson Ln,38.4525727952,-122.7641660833,
12010106,GUERNEVILLE RD & RIDLEY AV,38.4525693496,-122.7462265813,
12010107,Guerneville Rd & Ridley Ave,38.4526307856,-122.7445012233,
12010108,Hahman Dr & Hoen Ave,38.4387020609,-122.6854520954,
12010109,Hahman Dr & Midway Dr,38.4465693598,-122.6862007992,
12010110,Hahman Dr & Montgomery HS,38.4398143978,-122.6853496841,
12010111,Hahman Dr & Patio Ct,38.4421250609,-122.6849879921,
12010112,Hahman Dr & Patio Ct.,38.442038173,-122.6850985766,
12010113,Healdsburg Ave & 10th St,38.4439720657,-122.7178246997,
12010114,Hearn & Corby / DMV,38.4143607724,-122.7174574135,
12010115,Hearn & Dutton,38.4143560529,-122.7234356329,
12010116,Hearn & West,38.414291673,-122.7269765263,
12010117,Hearn Ave & Arrowhead Dr,38.4125562016,-122.7380882327,
12010118,Hearn Ave & Corby Ave (DMV),38.4143721052,-122.7176496826,
12010119,Hearn Ave & Dowd Dr,38.4143977612,-122.7198431008,
12010121,Hearn Ave & Stony Point/Old Stony Point,38.4121795126,-122.7401570167,
12088350,Hearn Ave & Victoria Dr.,38.414362,-122.722371,
12010123,Hendley St & ML King Jr Park,38.4288429248,-122.7038025315,
12010124,Highway 12 & Boas Dr,38.4650667262,-122.6579412718,
12010125,Highway 12 & Jack London Dr (Whitehead),38.4646978538,-122.6613790324,
12010126,Highway 12 & Maria Ln,38.4648007814,-122.6605330878,
12010127,Highway 12 & Middle Rincon Rd,38.4638243621,-122.6650465951,
12010128,Highway 12 & Mission Blvd,38.4586230383,-122.6746411205,
12010129,Highway 12 & Redwing,38.4612296734,-122.6705494934,
12010130,Highway 12 & Redwing Dr,38.4611691311,-122.6705564742,
12010131,Highway 12 & S Boas Dr,38.4649956362,-122.6577674961,
12010132,Highway 12 & Santa Rosa Village M.H.P.,38.4558247911,-122.6791247699,
12010133,hoen & yulupa,38.4396878609,-122.6710634141,
12010134,Hoen Ave & Camden Ct,38.4383923274,-122.6750576688,
12010135,Hoen Ave & Cypress Way,38.4376395162,-122.6816210983,
12010136,Hoen Ave & Cypress/Woodward Way,38.4386821702,-122.6740776544,
12010137,Hoen Ave & Franquette Ave,38.4376084043,-122.6790016227,
12010138,Hoen Ave & Hillard Ct,38.4391852281,-122.6726918895,
12010139,Hoen Ave & Hoen Frontage Rd,38.4376895215,-122.6816762962,
12010140,Hoen Ave & Mariposa Dr,38.440506672,-122.6689564079,
12010141,Hoen Ave & Moore Rd,38.4375858758,-122.6776924717,
12010142,Hoen Ave & Summerfield RD,38.4429974124,-122.6629138936,
12010143,Hoen Ave at Warrack Hospital,38.4420021518,-122.6647069425,
12010144,4650 Hoen Ave.,38.4418795664,-122.6647736361,
12010145,Hopper Ave & Airway Dr,38.4796746008,-122.7378871305,
12010146,Hopper Ave & Banyon Pl,38.4796868748,-122.741366146,
12010147,Hopper Ave & Coffey Ln,38.4796723463,-122.7467357361,
12010148,Hwy 12 & Middle Rincon Rd,38.4637602102,-122.6650060694,
12010149,Kawana Springs Rd & Meadow Way,38.4164327166,-122.708391309,
12010150,Kawana Springs Rd & Meadow Way,38.4164643121,-122.7084781968,
12010151,Kawana Springs Rd & Petaluma Hill Rd,38.4165168787,-122.7050382665,
12010152,Kawana Springs Rd & Santa Rosa Ave,38.4164374644,-122.7124796326,
12010153,Lewis Rd & Slater St,38.4613790724,-122.715935193,
12010154,Maple Ave at Fairgrounds,38.4330005231,-122.7029237961,
12010155,Marlow Rd & College Ave,38.4456469491,-122.7512440847,
12010156,Marlow Rd & Crosspoint Ave,38.4552853269,-122.7519341387,
12010157,Marlow Rd & Guerneville Rd,38.4523859234,-122.7512784946,
12010158,Marlow Rd & Gureneville/Jennings,38.4510089128,-122.7513291807,
12010159,Marlow Rd & Marsh Rd,38.4622899706,-122.75118689,
12010160,Marlow Rd & Piner Rd,38.4666707515,-122.751215459,
12010161,Marlow Rd & W Steele Ln,38.4593276817,-122.7512836944,
12010163,McMinn Ave at Hughes/Chelsea Gardens,38.4250590922,-122.7318086477,
12010164,Mendocino and Schurman Dr,38.4630225425,-122.7182705154,
12010165,Mendocino Ave & 7th St,38.442700957,-122.7156466784,
12010166,Mendocino Ave & Administration Dr,38.4649527259,-122.7193565981,
12010167,Mendocino Ave & Benton St,38.4478450781,-122.717607644,
12010168,Mendocino Ave & Benton St,38.447924067,-122.7176550374,
12010169,Mendocino Ave & Cherry St,38.4446467358,-122.7170829875,
12010170,Mendocino Ave & Clement Ave,38.4592018618,-122.7172404556,
12010171,Mendocino Ave & College Ave,38.4457547097,-122.7177291206,
12010172,Mendocino Ave & Dexter St,38.4573351182,-122.7172774911,
12010173,"Mendocino Ave & Journey's End M.H.P.",38.4739475859,-122.7275751801,
12010174,Mendocino Ave & McConnell Ave,38.4547998684,-122.7173603711,
12010175,Mendocino Ave & Nason St,38.4498191059,-122.7175584665,
12010176,Mendocino Ave & Pacific Ave (SRJC),38.45316343,-122.7174367357,
12010177,Mendocino Ave & Ridgeway Ave (SRHS),38.4507497182,-122.7175715094,
12010178,Mendocino Ave & Russell Ave,38.469782706,-122.7224900222,
12010179,Mendocino Ave & S.R.J.C.,38.4536373637,-122.7174683313,
12010180,Mendocino Ave & Silva Ave,38.4586021548,-122.7172149311,
12010181,Mendocino Ave & Steele Lane,38.461291656,-122.7173127178,
12010182,Mendocino Ave at Kaiser Hospital,38.4722191617,-122.7252113594,
12010183,Mission Blvd & Culbera Ave,38.4654634415,-122.6761740867,
12010184,Mission Blvd & Culebra Ave,38.4655108349,-122.67615039,
12010186,Mission Blvd & Highway 12,38.4588442074,-122.6745779294,
12010185,Mission Blvd & Highway 12,38.4589073985,-122.6747911995,
12010187,Mission Blvd & Montecito Blvd,38.4719829799,-122.6769094726,
12010188,Mission Blvd & Quigg Dr,38.458022666,-122.6729161835,
12010190,Mission Blvd & Sherbrook Dr,38.4631796804,-122.6757360432,
12010189,Mission Blvd & Sherbrook Dr,38.4632349726,-122.6757755377,
12010191,Mission Blvd & Vine St,38.4705629234,-122.6767528334,
12010193,Mission Blvd & Yukon Dr,38.4674808316,-122.6767442647,
12010192,Mission Blvd & Yukon Dr,38.4675677194,-122.676791658,
12010194,Mission Blvd and Highway 12/Montgomery Dr,38.4583307792,-122.6736774555,
12010195,Montecito Blvd & Benecia Dr,38.4733471413,-122.6756406952,
12010196,Montecito Blvd & Benicia Dr,38.4733313435,-122.6755933018,
12010197,Montecito Blvd & Benjamins Rd,38.4770212292,-122.668072067,
12010198,Montecito Blvd & Middle Rincon Rd,38.4758393529,-122.6725797251,
12010199,Montecito Blvd & Middle Rincon Rd,38.4757998584,-122.6725560284,
12010200,Montecito Blvd & Swift Ct,38.4768240477,-122.6691651625,
12010201,Montgomery Dr & 2nd St,38.4429563271,-122.7046668482,
12010202,Montgomery Dr & Alderbrook Dr,38.4445931989,-122.6950214212,
12010203,Montgomery Dr & California Ave,38.4445040064,-122.6954419961,
12010204,Montgomery Dr & Doyle Park Dr (Memorial Hospital),38.4434945434,-122.6991174751,
12010206,Montgomery Dr & Franquette Ave,38.4480050889,-122.6826196512,
12010205,Montgomery Dr & Franquette Ave,38.44799719,-122.682785528,
12010207,Montgomery Dr & Jacqueline Dr,38.4514349883,-122.6761784268,
12010209,Montgomery Dr & Shortt Rd,38.4455684393,-122.6916288629,
12010208,Montgomery Dr & Shortt Rd,38.4455052481,-122.6916762563,
12010210,Montgomery Dr & Sotoyome St,38.4428998828,-122.7011960544,
12010211,Montgomery Dr & Summerfield Rd,38.4546510326,-122.672282153,
12010213,Montgomery Dr & Talbot Ave,38.4438575393,-122.6975752923,
12010212,Montgomery Dr & Talbot Ave,38.4439088821,-122.6976068879,
12010214,Montgomery Dr & Yates DR,38.446064199,-122.6898029793,
12010215,Montgomery Dr & Yates Dr,38.4460089067,-122.6898029793,
12010216,Montgomery Dr & Yulupa Ave,38.4494387344,-122.6792867245,
12010217,Montgomery Dr & Yulupa Ave,38.449462431,-122.6791524433,
12010218,Montgomery Dr at Jacquiline/Summerfield,38.4526119235,-122.6742905911,
12010219,Monticito Blvd & Rincon Valley Public Valley,38.4786535054,-122.6616171787,
12010220,"Monticito Blvd & St Mary's Dr",38.4781720329,-122.6646981473,
12010221,Monticito Blvd & St Marys Dr,38.4781404373,-122.6648877208,
12010222,Monticito Blvd at Brookwood M.H.P.,38.4786633813,-122.6604908198,
12010223,N Dutton Ave & El Cerrito Dr,38.4545956893,-122.7370365107,
12010224,N Dutton Ave & Guerneville Rd,38.455353495,-122.7377649706,
12010225,N Dutton Ave & Jennings Ave,38.4521730391,-122.7352317423,
12010226,N Dutton Ave & Jennings Ave,38.4521493424,-122.7352791356,
12010227,N Dutton Ave & Tesconi Cir,38.450390034,-122.7342699737,
12010228,N Dutton Ave & Tesconi Cir (North),38.450390034,-122.7342067825,
12010229,N Dutton Ave & Tesconi Cir (South),38.4484390072,-122.7321530701,
12010230,N Dutton Ave & Tesconi Cir. (South),38.4485100972,-122.7322794524,
12010231,N Dutton Ave & W College Ave,38.4461885402,-122.7304214643,
12010232,2nd St & E St,38.4406001761,-122.7095539701,
12010234,2nd St & Montgomery Dr,38.4430234677,-122.7045167692,
12010233,2nd St & Montgomery Dr,38.4428654898,-122.7046668482,
12010235,Neotomas Ave & Post Ranch Rd,38.4334815594,-122.6856392725,
12010236,Northpoint Pkwy & Kingfisher Wy,38.4159787075,-122.7434841438,
12010237,Northpoint Pkwy & Lombardi Ln,38.416234638,-122.7471155461,
12010238,Northpoint Pkwy & Mariner Way,38.4157945162,-122.7522690499,
12010239,Northpoint Pkwy & Mariner Wy,38.4160314831,-122.7501363485,
12010240,NORTHPOINT PKWY & STONY POINT RD,38.4160760861,-122.7401437877,
12010241,Northpoint Pkwy & Thunderbolt Wy,38.416163548,-122.7471629394,
12010242,Olive St & Hazel St,38.4344071817,-122.7193677829,
12010243,Olive St & Laurel St,38.4331506813,-122.7189488965,
12010244,Pacific Ave & Beaver St,38.4532318033,-122.7119252798,
12010245,Pacific Ave & Beaver St,38.4532633988,-122.7121385499,
12010246,Pacific Ave & Elizabeth Wy,38.4530247654,-122.7027868219,
12010247,Pacific Ave & North St,38.453157,-122.707186,
12010248,Pacific Ave & North St,38.453157,-122.707186,
12010249,Pacific Ave & Slater St (SRJC),38.4533631523,-122.7156770057,
12010250,Pacific Ave & Spring St,38.4529834036,-122.7026039905,
12010251,Parker Hill Rd & Chanate Rd,38.4719762766,-122.7034709518,
12010252,Parker Hill Rd & Hidden Pine Ct,38.4809898124,-122.7048551329,
12010253,Parker Hill Rd & Parker Hill Ct,38.4787685185,-122.7046598239,
12010254,Patio Ct & Hahman Dr,38.4421803531,-122.6854856225,
12010255,Petaluma Hill Rd & Aston Ave,38.4238284064,-122.7081335565,
12010256,Petaluma Hill Rd & Barham Ave,38.4276532492,-122.710435142,
12010257,Petaluma Hill Rd & Colgan Ave,38.4229792379,-122.7076936482,
12010258,Petaluma Hill Rd & Crystal Hill Dr,38.4189080287,-122.7043353912,
12010259,Petaluma Hill Rd & Pressley St,38.4277085414,-122.7103956476,
12010260,Petaluma Hill Rd & Santa Ana Dr,38.422180536,-122.7070990403,
12010261,Pierce St & 4th St,38.4447173377,-122.7050190133,
12010262,Piner Rd & Airway Dr,38.4719828982,-122.7378546931,
12010263,Piner Rd & Coffey Ln/Industrial Dr,38.4701480509,-122.7411588356,
12010264,Piner Rd & Coffey Ln/Industrial Ln,38.4696425217,-122.7418855339,
12010265,Piner Rd & Golden Gate Transit Depot,38.4706256154,-122.740653827,
12010266,Piner Rd & Peterson Ln,38.4671192371,-122.7624705461,
12010267,Piner Rd & Piner Pl,38.4720271008,-122.736616186,
12010268,Piner Rd & Pinercrest Dr,38.4670787722,-122.7663079332,
12010269,Piner Rd & Range Ave,38.4720485569,-122.7342285879,
12010270,Piner Rd & Waltzer Rd,38.467098612,-122.756232931,
12010271,Post Ranch Rd & Townview Ave,38.4345184048,-122.6835639124,
12010272,Railroad St & 3rd St,38.4359154675,-122.7200875976,
12010273,Railroad St & 3rd St,38.4366658624,-122.7198506307,
12010275,Range Ave & Katy Ct/ W Steele Ln,38.4636308645,-122.7326469995,
12010276,Range Ave & Russell Ave,38.469771865,-122.7325517742,
12010277,Range Ave & Russell Ave,38.4688634922,-122.7326228643,
12010278,Range Ave & State Farm Dr,38.4662413674,-122.7326339509,
12010279,Range Ave & W Steele Lane,38.460829176,-122.7324661493,
12010280,Range Ave & W Steele Ln,38.4600985283,-122.7325767338,
12010281,Range Ave & W Steele/State Farm Dr,38.4635937889,-122.7326083294,
12010282,Range Ave at Lamplighter Apts.,38.4557205242,-122.7325518178,
12010283,3rd St & Brookwood Ave,38.4426180751,-122.7069334697,
12010284,3rd St & Railraod St,38.4366579635,-122.7198427318,
12010285,3rd St & Wilson St,38.436547379,-122.7201981821,
12010286,3rd St and Sonoma County Library,38.4407693136,-122.7110356822,
12010287,Roseland Shops,38.429813,-122.729309,
12010288,Round Barn Blvd & Kaiser Offices,38.4783978171,-122.7284264498,
12010289,Round Barn Blvd & Unocal Pl,38.4788351316,-122.7228843556,
12010290,Round Barn Blvd at Hilton,38.4765201038,-122.7270049177,
12010291,Round Barn Blvd at Vineard Commons,38.4806852281,-122.7269867563,
12010292,Santa Rosa & Barham,38.4272072854,-122.7132672086,
12010293,Santa Rosa & Colgan,38.4210730205,-122.7135425911,
12010294,Santa Rosa & Flower,38.4242758663,-122.7135431069,
12010295,Santa Rosa & Maple,38.4314492213,-122.7112669462,
12010296,Santa Rosa & Pearl,38.4075961654,-122.7135640511,
12010297,Santa Rosa Av & Kawana Springs Rd,38.4163624249,-122.7135459833,
12010298,SANTA ROSA AV & SANTA ROSA TOWN CENTER,38.4074532155,-122.7135681347,
12010299,Santa Rosa Ave & Barham Ave,38.4273406536,-122.7131041853,
12010300,Santa Rosa Ave & Burt St.,38.4101360758,-122.7135750965,
12010301,Santa Rosa Ave & Colgan Ave,38.4215979442,-122.7135587031,
12010302,Santa Rosa Ave & Commercial Ct,38.4189499534,-122.7136092983,
12010303,Santa Rosa Ave & Flower Ave,38.4241638831,-122.7135055956,
12010304,SANTA ROSA AVE. &  APPLE LN,38.4079929202,-122.7133647037,
12010305,SANTA ROSA CHRISTIAN HS,38.4232193896,-122.7688929318,
12010306,Santa Rosa Marketplace,38.4189509823,-122.7135532918,
12088347,3951 Sebastopol Rd,38.425168,-122.765233,
12010307,Sebastopol Rd & Boyd St,38.4316304503,-122.720297382,
12010308,Sebastopol Rd & Burbank Ave,38.4283421218,-122.7347103599,
12010309,Sebastopol Rd & Chestnut St,38.4318522091,-122.7196215143,
12010310,SEBASTOPOL RD & CORPORATE CENTER PKWY,38.426052,-122.753994,
12088348,Sebastopol Rd & Doubles Dr,38.425189,-122.762416,
12010311,Sebastopol Rd & Dutton Ave,38.4307168283,-122.7249084805,
12010312,Sebastopol Rd & Dutton Ave,38.4306299405,-122.7250664584,
12010313,Sebastopol Rd & Hampton Way,38.4275755111,-122.7382060419,
12010314,Sebastopol Rd & Hampton Wy,38.4276071067,-122.7378031983,
12010315,Sebastopol Rd & Kenmore Ln,38.4267269304,-122.7431722152,
12010317,Sebastopol Rd & Lombardi Ln,38.4263454248,-122.7486834111,
12010318,Sebastopol Rd & Lombardi Ln,38.4262980314,-122.7485254332,
12010319,Sebastopol Rd & McMinn Ave,38.4292238068,-122.7311199832,
12010320,Sebastopol Rd & Romani Ct.,38.4286643833,-122.7336864289,
12010321,Sebastopol Rd & West Ave,38.4297869428,-122.7287956282,
12010324,Sebastopol Rd at Casa Del Sol,38.4266237987,-122.7450214996,
12010325,SEBASTOPOL RD AT COOK MIDDLE SCHOOL,38.4266232872,-122.7443873898,
12010326,SEBASTOPOL RD AT PACIFIC BELL,38.4257750137,-122.7549987397,
12010327,Sonoma Av at Doyle Park Dr,38.4416274016,-122.6981357663,
12010328,Sonoma Ave & Brookwood Ave,38.4405538006,-122.7020342383,
12010329,Sonoma Ave & Brookwood Ave,38.4402852381,-122.7031400835,
12010330,Sonoma Ave & Brookwood/E St,38.4392346852,-122.7069631482,
12010331,Sonoma Ave & Carley Rd,38.4485955126,-122.6726895709,
12010332,Sonoma Ave & Church St,38.4441064567,-122.6890545479,
12010333,Sonoma Ave & Doyle Park Dr,38.44171034,-122.6981673619,
12010334,Sonoma Ave & E/Gray Street,38.4392334402,-122.7067943772,
12010335,Sonoma Ave & Franquette Ave,38.4460738402,-122.6819270637,
12010336,Sonoma Ave & Franquette Ave,38.4460659413,-122.682124536,
12010337,Sonoma Ave & Hoen Ave,38.4426197325,-122.6945371936,
12010338,Sonoma Ave & Montgomery Village,38.445037611,-122.6856737964,
12010339,Sonoma Ave & Rosedale Ave,38.4426164907,-122.6947446237,
12010340,Sonoma Ave & Shortt Rd,38.4436320771,-122.6910510146,
12010341,Sonoma Ave & Sotoyome St,38.4410529072,-122.7004057067,
12010342,Sonoma Ave & South E St,38.4387387382,-122.7085260308,
12010343,Sonoma Ave & Summerfield Rd,38.4496995906,-122.6687648174,
12010344,Sonoma Ave & Yulupa Ave,38.4472671443,-122.6774407089,
12010345,Sonoma Ave & Yulupa Ave,38.4472434476,-122.6776934735,
12010346,Sonoma Ave at Doctors Park Dr,38.443288567,-122.6920986668,
12010347,Sonoma Ave at Montgomery Village,38.445037611,-122.6856893467,
12010348,South E St & Clark St,38.4372092712,-122.7065525992,
12010349,South E St & Hendley St,38.4316876271,-122.7053278636,
12010350,South E St & Maple Ave,38.4336047885,-122.7045430694,
12010351,South E St & Sonoma Ave,38.4385412658,-122.7082653673,
12010352,South E St & Stevenson St,38.4336950996,-122.7045377574,
12010353,South E St & Tupper St,38.4372669621,-122.706716671,
12010354,South E St & Wheeler St,38.4350999657,-122.7053890948,
12010355,South E St & Wheeler St,38.4351394602,-122.7053417014,
12010356,Southwest Community Park,38.4133870376,-122.7331020281,
12010357,Stagecoach Rd & Fountaingrove Pkwy,38.4860076312,-122.7092224997,
12010360,Steele Ln & Meyers Dr,38.4600937496,-122.722903219,
12010361,Steele Ln & Rowe Dr,38.460848314,-122.7181182413,
12010362,Stony Point Rd & Giffen Ave,38.4188036332,-122.7402640194,
12010363,Stony Point Rd & Glenbrook Dr,38.4373597798,-122.7428581057,
12010364,Stony Point Rd & Marble St,38.4211536267,-122.7405739581,
12010365,Stony Point Rd & Mesa Wy,38.4246099696,-122.7410123664,
12010366,Stony Point Rd & Northpoint Pkwy/Hearn,38.4153177923,-122.7398831242,
12010367,Stony Point Rd & Sebastopol Rd,38.4266854643,-122.7412364336,
12010368,Stony Point Rd & Stony Circle,38.4404867216,-122.7448153704,
12010369,Stony Point Rd & W 9th St,38.4404946205,-122.7447284826,
12010370,Stony Point Rd & West 3rd St,38.4340663513,-122.7424230804,
12010371,Stony Point Rd at Finley Park,38.4424636948,-122.7487480342,
12010372,Stony Point Rd at M.S.C.N.,38.4426747153,-122.7492782456,
12010373,Stony Point Road & Bellevue Ranch Rd,38.4081350451,-122.7414074692,
12081129,Stony Point Road & Glenbrook Dr,38.437272892,-122.7427870157,
12010374,Stony Point Road & Glenbrook Dr,38.437272892,-122.7427870157,
12010375,Stony Point Road & Lazzini Ave,38.4223761172,-122.7406683669,
12010377,Stony Point Road & Occidental/West 3rd St,38.432814169,-122.7420376071,
12010378,Stony Point Road & Old Stony Point Road,38.4141068354,-122.7401634171,
12010379,Stony Point Road at Bellevue & Ludwig,38.4023859903,-122.7413975735,
12010380,Stony Point Road at Highway 12/FoodMAXX,38.4287944691,-122.7415286927,
12010381,Summerfield & Shade Tree,38.4402807286,-122.6608465897,
12010382,Summerfield Rd & Carissa Ave,38.437623778,-122.6594557519,
12010383,Summerfield Rd & Horseshoe Dr (North),38.4349844911,-122.6596136334,
12010384,Summerfield Rd & Horseshoe Dr (South),38.431785439,-122.6605536019,
12010385,Summerfield Rd & Texas Dr,38.4475439591,-122.6661404058,
12010386,Summerfield Rd at Hoen/Warrack Hospital,38.4422707142,-122.6622740831,
12010387,Summerfield Road at Wyoming/Hoen,38.4441787475,-122.6636793794,
12010388,4th St & Alderbrook Dr,38.4494562181,-122.698345761,
12010389,4th St & Clyde Ave,38.4499131545,-122.6981914191,
12010390,4th St & College Ave,38.4454551183,-122.7040561638,
12010391,8th St & Donahue St,38.4396892868,-122.7239709803,
12010392,5th St & Morgan St,38.4389435692,-122.7193749984,
12010393,4th St & Talbot Ave,38.4474994879,-122.700923953,
12010394,4th St at Safeway,38.4498099155,-122.6907094127,
12010395,Townview Ave & Neotomas Ave,38.4337636407,-122.6872890471,
12010396,Transit Mall,38.438689,-122.713711,
12010397,Transit Mall,38.438689,-122.713711,
12010398,Tupper St & Hendley St,38.4368875551,-122.7081921818,
12010399,Ventura Ave & Administration Dr,38.4641006414,-122.7243780727,
12010400,Vista Sonoma,38.4355856694,-122.6856505657,
12010401,W 3rd & Valley West Dr,38.4369813222,-122.7585092784,
12010402,W 3rd St & Arboleda Dr,38.436281628,-122.7560771473,
12010403,W 3rd St & Brittian Ln,38.4353584278,-122.7533457928,
12010404,W 3rd St & Chadwick Pl,38.4347759095,-122.7494276675,
12010405,W 3rd St & Darla Dr,38.438012525,-122.7668014337,
12010406,W 3rd St & Dutton Ave,38.433935034,-122.7275403166,
12010407,W 3rd St & Dutton Ave,38.4340219219,-122.7268531128,
12010408,W 3rd St & Fulton Rd,38.4380169387,-122.7701476944,
12010409,W 3rd St & Roberts Ave,38.4351344001,-122.7228437105,
12010410,W 3rd St & Rusch Ct,38.4329824971,-122.7332604776,
12010411,W 3rd St & Senna Dr,38.4379620633,-122.7617770228,
12010412,W 3rd St & Stony Point Rd,38.43386098,-122.7426837439,
12010413,W 3rd St & Surrey Dr,38.4333753477,-122.7358316728,
12010414,W 3rd St & Westbrook Dr,38.4336963456,-122.740057521,
12010415,W 3rd St & Westbrook Dr (Stony Point Rd),38.4337200423,-122.7412265573,
12010416,W 9th St  &  Dutton Ave,38.4416218936,-122.7288717099,
12010417,W 9th St & Kingwood Dr,38.4416948299,-122.7315016876,
12010418,W 9th St & Link Ln,38.4417574366,-122.733918956,
12010419,W 9th St & Simpson St,38.4415501338,-122.7378132976,
12010420,W 9th St & Stony Point Rd,38.4405894072,-122.7444599202,
12010421,W 9th St & W 8th St,38.4414159962,-122.741258676,
12010422,W College Ave & Cleveland Ave,38.4458855625,-122.7262591224,
12010423,W College Ave & Clover Dr (G & G Center),38.4454157665,-122.7394841336,
12010424,W College Ave & Dorrit Ave,38.4452917703,-122.7632458989,
12010425,W College Ave & Fulton Rd,38.4453374688,-122.7694020121,
12010426,W College Ave & Link Ln,38.4456441806,-122.7342220008,
12010427,W College Ave & Maxell Ct,38.4458281689,-122.730103932,
12010428,W College Ave & Monroe Hall,38.4452196515,-122.7436331305,
12010429,W College Ave & Putney Dr,38.445292305,-122.7587280632,
12010430,W College Ave & Putney Dr/Stony Point Rd,38.4452361087,-122.7543397938,
12010431,W College Ave & Ridley,38.4452400364,-122.7460107025,
12010432,W Steele Ln & Apache St,38.4597883967,-122.7454500883,
12010433,W Steele Ln & Coffee Ln,38.459903142,-122.7411072378,
12010434,W Steele Ln & Coffey Ln,38.4599663331,-122.7411783279,
12010435,W Steele Ln & Dorado,38.4599467456,-122.7370158891,
12010436,W Steele Ln & HardiesLn,38.4600033691,-122.7348999989,
12010437,W Steele Ln & Heidi Pl,38.4600015899,-122.737013252,
12010438,W Steele Ln & Range Ave,38.4599444998,-122.7327426106,
12010439,W Steele Ln & Rochelle St,38.4597603582,-122.7503110384,
12010440,W. 3rd St & Wilson St/Pierson St,38.4355192377,-122.7224187669,
12010442,West Ave & Leo Dr,38.4184863091,-122.7275229038,
12010445,West Ave & South Ave,38.4231257473,-122.7280851534,
12010447,West Ave & Valerie Wy,38.4162607703,-122.7271764494,
12010448,West Steele Ln at Comstock J.H.S.,38.4597297285,-122.7459750226,
12010449,Westside Transfer Center,38.4449913409,-122.7514573549,
12081128,Westside Transfer Center,38.4449913409,-122.7514573549,
12010450,Wilson St & 6th St,38.4388062339,-122.7217095117,
12010451,Yolanda Ave & Goodwill Industries,38.4133057525,-122.705448538,
12010452,Yolanda Ave & Santa Rosa Ave,38.4132233337,-122.7134856488,
12010453,Yulupa Ave & Bennett Valley Shops,38.4266876276,-122.6675108615,
12010454,Yulupa Ave & Claremont Dr,38.4466632833,-122.6770842557,
12010455,Yulupa Ave & Douglas,38.4381875932,-122.6705564879,
12010456,Yulupa Ave & Hoen Ave,38.439705403,-122.6717060352,
12010457,Yulupa Ave & Mayette Ave,38.4420445699,-122.6735113377,
12010458,Yulupa Ave & Princeton Dr,38.4435513738,-122.6746727874,
12010459,Yulupa Ave & Sacramento Ave,38.4361259818,-122.6689214168,
12010460,Yulupa Ave & Tachevah Dr,38.4317523208,-122.6682941169,
